[
  {
    "id": 600,
    "wind2horizon_id": null,
    "lat": 44.9495486,
    "lng": 14.4158599,
    "name_en": "Apartment ACI Marina CRES",
    "description_en": null
  },
  {
    "id": 87,
    "wind2horizon_id": null,
    "lat": 47.3475428,
    "lng": 13.20184,
    "name_en": "sehen!wutscher",
    "description_en": null
  },
  {
    "id": 93,
    "wind2horizon_id": null,
    "lat": 44.87322990000001,
    "lng": 13.8502458,
    "name_en": "Pula Arena",
    "description_en": "Huge Roman amphitheater with an underground exhibition about ancient olive oil & wine production."
  },
  {
    "id": 2333,
    "wind2horizon_id": null,
    "lat": 45.21870753072248,
    "lng": 12.9848735910356,
    "name_en": null,
    "description_en": null
  },
  {
    "id": 427,
    "wind2horizon_id": null,
    "lat": 45.2025388,
    "lng": 13.5883683,
    "name_en": "Villa Romana beach lounge & restaurant",
    "description_en": null
  },
  {
    "id": 2083,
    "wind2horizon_id": null,
    "lat": 47.34251400000001,
    "lng": 13.1986437,
    "name_en": "Hotel Lerch",
    "description_en": "Polished chalet lodging offering kids’ activities & a spa with 2 pools, plus a restaurant."
  },
  {
    "id": 2074,
    "wind2horizon_id": null,
    "lat": 43.295828,
    "lng": 10.5971138,
    "name_en": "Podere Treggiaia",
    "description_en": null
  },
  {
    "id": 2397,
    "wind2horizon_id": null,
    "lat": 47.273843,
    "lng": 12.7574626,
    "name_en": "Kitzsteinhorn - Gletscherbahnen Kaprun AG",
    "description_en": null
  },
  {
    "id": 2026,
    "wind2horizon_id": null,
    "lat": 44.1234,
    "lng": 14.9876,
    "name_en": null,
    "description_en": null
  },
  {
    "id": 2621,
    "wind2horizon_id": null,
    "lat": 45.5135253,
    "lng": 13.5933814,
    "name_en": "Cacao Portorož",
    "description_en": null
  },
  {
    "id": 632,
    "wind2horizon_id": null,
    "lat": 43.81910329999999,
    "lng": 15.9189997,
    "name_en": "ACI Marina Skradin",
    "description_en": null
  },
  {
    "id": 2893,
    "wind2horizon_id": null,
    "lat": 45.5279616,
    "lng": 13.5678655,
    "name_en": "Port Piran",
    "description_en": null
  },
  {
    "id": 2898,
    "wind2horizon_id": null,
    "lat": 45.3204658,
    "lng": 13.5637114,
    "name_en": "Marina Nautica Novigrad",
    "description_en": null
  },
  {
    "id": 2082,
    "wind2horizon_id": null,
    "lat": 45.1726543,
    "lng": 13.6055542,
    "name_en": "More",
    "description_en": null
  },
  {
    "id": 2526,
    "wind2horizon_id": null,
    "lat": 45.5498488,
    "lng": 13.7277917,
    "name_en": "Marina Koper",
    "description_en": null
  },
  {
    "id": 2030,
    "wind2horizon_id": null,
    "lat": 43.99888335973192,
    "lng": 14.747106919623922,
    "name_en": null,
    "description_en": null
  },
  {
    "id": 628,
    "wind2horizon_id": null,
    "lat": 44.11722,
    "lng": 15.2199087,
    "name_en": "Sea Organ",
    "description_en": "Large experimental musical instrument mounted beneath a staircase & played by the waves on the sea."
  },
  {
    "id": 2027,
    "wind2horizon_id": null,
    "lat": 44.12,
    "lng": 14.98,
    "name_en": null,
    "description_en": null
  },
  {
    "id": 665,
    "wind2horizon_id": null,
    "lat": 43.6252323,
    "lng": 15.5745049,
    "name_en": "Blitvenica Lighthouse",
    "description_en": null
  },
  {
    "id": 2806,
    "wind2horizon_id": null,
    "lat": 45.4409582,
    "lng": 13.5132327,
    "name_en": "ACI Marina Umag",
    "description_en": null
  },
  {
    "id": 2530,
    "wind2horizon_id": null,
    "lat": 45.5255518,
    "lng": 13.5672595,
    "name_en": "Mejni prehod za mednarodni morski promet Piran",
    "description_en": null
  },
  {
    "id": 3384,
    "wind2horizon_id": null,
    "lat": 45.2508423,
    "lng": 13.5944009,
    "name_en": "Lučica Materada",
    "description_en": null
  },
  {
    "id": 2532,
    "wind2horizon_id": null,
    "lat": 45.52798079999999,
    "lng": 13.5720991,
    "name_en": "Viewpoint",
    "description_en": null
  },
  {
    "id": 2528,
    "wind2horizon_id": null,
    "lat": 45.5396957,
    "lng": 13.6640576,
    "name_en": "Jahtni center Izola d.o.o.",
    "description_en": null
  },
  {
    "id": 2033,
    "wind2horizon_id": null,
    "lat": 47.1145299,
    "lng": 13.1370978,
    "name_en": "A-ROSA Collection Straubinger Grand Hotel Bad Gastein",
    "description_en": null
  },
  {
    "id": 2034,
    "wind2horizon_id": null,
    "lat": 47.42541139999999,
    "lng": 12.4202027,
    "name_en": "Golf Eichenheim",
    "description_en": null
  },
  {
    "id": 466,
    "wind2horizon_id": null,
    "lat": 45.0819593,
    "lng": 13.6316562,
    "name_en": "Rovinj Mali Raj",
    "description_en": null
  },
  {
    "id": 2076,
    "wind2horizon_id": null,
    "lat": 47.3469009,
    "lng": 13.2024019,
    "name_en": "Metzgerei Rettensteiner-Scharfetter",
    "description_en": null
  },
  {
    "id": 2078,
    "wind2horizon_id": null,
    "lat": 47.34846839999999,
    "lng": 13.2018103,
    "name_en": "Urban - Die Fleischerei",
    "description_en": null
  },
  {
    "id": 2899,
    "wind2horizon_id": null,
    "lat": 45.5371509,
    "lng": 13.7321521,
    "name_en": "Maxen Bencinski servis",
    "description_en": null
  },
  {
    "id": 2529,
    "wind2horizon_id": null,
    "lat": 45.5049004,
    "lng": 13.5976743,
    "name_en": "Marina Portorož",
    "description_en": null
  },
  {
    "id": 2077,
    "wind2horizon_id": null,
    "lat": 45.5293377,
    "lng": 13.5658504,
    "name_en": "Fritolin Pri Cantini",
    "description_en": null
  },
  {
    "id": 517,
    "wind2horizon_id": null,
    "lat": 45.1493381,
    "lng": 13.6038832,
    "name_en": "Studenac Market",
    "description_en": null
  },
  {
    "id": 2081,
    "wind2horizon_id": null,
    "lat": 38.7401303,
    "lng": -9.1803574,
    "name_en": "Palace Fronteira",
    "description_en": "17th-century palace open for guided tours, with traditional azulejo tiling, paintings and furniture."
  },
  {
    "id": 2031,
    "wind2horizon_id": null,
    "lat": 43.8463981769064,
    "lng": 14.370066406249995,
    "name_en": null,
    "description_en": "Test of module B Now also a test whether the data is displayed in the map."
  },
  {
    "id": 508,
    "wind2horizon_id": null,
    "lat": 45.1505492,
    "lng": 13.6052522,
    "name_en": "Viewpoint Casanova",
    "description_en": "Observation deck on a hilltop, with views over a yacht harbor, Vrsar old town & the Adriatic Sea."
  },
  {
    "id": 899,
    "wind2horizon_id": null,
    "lat": 45.0589807,
    "lng": 13.6237276,
    "name_en": "Sveti Andrija",
    "description_en": "Tiny island in the Adriatic Sea featuring a hotel, a beach & a water-sports center."
  },
  {
    "id": 561,
    "wind2horizon_id": null,
    "lat": 44.8731915,
    "lng": 13.8450158,
    "name_en": "ACI marina Pula",
    "description_en": null
  },
  {
    "id": 2527,
    "wind2horizon_id": null,
    "lat": 45.5331538,
    "lng": 13.6532217,
    "name_en": "Harbor Izola",
    "description_en": null
  },
  {
    "id": 629,
    "wind2horizon_id": null,
    "lat": 43.7575498,
    "lng": 15.7800631,
    "name_en": "ACI Marina Vodice",
    "description_en": null
  },
  {
    "id": 3181,
    "wind2horizon_id": null,
    "lat": 45.5805933,
    "lng": 13.7288714,
    "name_en": "Oddelek B",
    "description_en": null
  },
  {
    "id": 630,
    "wind2horizon_id": null,
    "lat": 47.3226363,
    "lng": 13.1608855,
    "name_en": "Palermo Pizzeria",
    "description_en": null
  },
  {
    "id": 2028,
    "wind2horizon_id": null,
    "lat": 44.03892636133072,
    "lng": 15.055097809853564,
    "name_en": null,
    "description_en": null
  },
  {
    "id": 89,
    "wind2horizon_id": null,
    "lat": 48.2040009,
    "lng": 16.3697963,
    "name_en": "Hotel Sacher Vienna",
    "description_en": "Elegant quarters in a ornate hotel with 2 refined restaurants, a terrace bar & a full-service spa."
  },
  {
    "id": 2889,
    "wind2horizon_id": null,
    "lat": 45.31783739999999,
    "lng": 13.5594487,
    "name_en": "Amore Bar",
    "description_en": null
  },
  {
    "id": 94,
    "wind2horizon_id": null,
    "lat": 45.2038392,
    "lng": 13.5947036,
    "name_en": "Skilift Porec",
    "description_en": null
  },
  {
    "id": 97,
    "wind2horizon_id": null,
    "lat": 47.8997807,
    "lng": 13.7583526,
    "name_en": "Seefunkschule Adlmanninger",
    "description_en": null
  },
  {
    "id": 516,
    "wind2horizon_id": null,
    "lat": 45.1508499,
    "lng": 13.5999246,
    "name_en": "Electric Vehicle Charging Station",
    "description_en": null
  },
  {
    "id": 3381,
    "wind2horizon_id": null,
    "lat": 45.5329066,
    "lng": 13.6526976,
    "name_en": "Porting, gradbeništvo, trgovina in turizem, d.o.o",
    "description_en": null
  },
  {
    "id": 2032,
    "wind2horizon_id": null,
    "lat": 43.655935077637004,
    "lng": 14.172312499999995,
    "name_en": null,
    "description_en": null
  },
  {
    "id": 573,
    "wind2horizon_id": null,
    "lat": 44.8439116,
    "lng": 13.8452287,
    "name_en": "Pitter d.o.o.",
    "description_en": null
  },
  {
    "id": 3201,
    "wind2horizon_id": null,
    "lat": 45.6577318,
    "lng": 13.7728599,
    "name_en": "Centro Benefits",
    "description_en": null
  },
  {
    "id": 3194,
    "wind2horizon_id": null,
    "lat": 45.6493858,
    "lng": 13.7810595,
    "name_en": "Ospedale Maggiore di Trieste Trieste",
    "description_en": null
  },
  {
    "id": 3197,
    "wind2horizon_id": null,
    "lat": 45.6329133,
    "lng": 13.8260535,
    "name_en": "Cardiology Center",
    "description_en": null
  },
  {
    "id": 3189,
    "wind2horizon_id": null,
    "lat": 45.5423594,
    "lng": 13.7312269,
    "name_en": "Zdravstvene masaže, Hongzhou Liu, s.p.",
    "description_en": null
  },
  {
    "id": 2904,
    "wind2horizon_id": null,
    "lat": 45.5052807,
    "lng": 13.5967624,
    "name_en": "MOL",
    "description_en": null
  },
  {
    "id": 586,
    "wind2horizon_id": null,
    "lat": 44.821828,
    "lng": 13.9022051,
    "name_en": "ACI Marina Pomer",
    "description_en": null
  },
  {
    "id": 631,
    "wind2horizon_id": null,
    "lat": 43.7585415,
    "lng": 15.3460817,
    "name_en": "ACI Marina Piskera",
    "description_en": null
  },
  {
    "id": 2808,
    "wind2horizon_id": null,
    "lat": 41.0904424,
    "lng": 13.5594377,
    "name_en": "Amore Cucina & Bar",
    "description_en": "A Food Network chef serves wood-fired pizzas, Italian favorites, brunch & drinks in a warm setting."
  },
  {
    "id": 98,
    "wind2horizon_id": null,
    "lat": 47.34702619999999,
    "lng": 13.2021919,
    "name_en": "Johannes Stadtapotheke",
    "description_en": null
  },
  {
    "id": 2892,
    "wind2horizon_id": null,
    "lat": 45.5286508,
    "lng": 13.5686185,
    "name_en": "Tartini Square",
    "description_en": null
  },
  {
    "id": 91,
    "wind2horizon_id": null,
    "lat": 47.35044120000001,
    "lng": 13.1940298,
    "name_en": "JET Tankstelle",
    "description_en": null
  },
  {
    "id": 2035,
    "wind2horizon_id": null,
    "lat": 47.1139945,
    "lng": 13.1369949,
    "name_en": "Urban Nature Bad Gastein - Badeschloss",
    "description_en": null
  },
  {
    "id": 2029,
    "wind2horizon_id": null,
    "lat": 44.13602924559946,
    "lng": 15.068412977946032,
    "name_en": null,
    "description_en": null
  },
  {
    "id": 2207,
    "wind2horizon_id": null,
    "lat": 47.3481374,
    "lng": 13.2015831,
    "name_en": "Farben Steger - Farben, Lacke, Künstler- und Malerbedarf, Wohnaccessoires, Kerzen, Räucherwerk",
    "description_en": null
  },
  {
    "id": 95,
    "wind2horizon_id": null,
    "lat": 47.3089895,
    "lng": 13.0902492,
    "name_en": "Golfclub Goldegg",
    "description_en": null
  },
  {
    "id": 2049,
    "wind2horizon_id": null,
    "lat": 47.4255636,
    "lng": 12.4200354,
    "name_en": "Gasthaus Eichenheim",
    "description_en": null
  },
  {
    "id": 2025,
    "wind2horizon_id": null,
    "lat": -33.866489,
    "lng": 151.1958561,
    "name_en": "Google Sydney - Pirrama Road",
    "description_en": null
  },
  {
    "id": 515,
    "wind2horizon_id": null,
    "lat": 45.1507961,
    "lng": 13.5994712,
    "name_en": "Restoran “Trošt”",
    "description_en": null
  },
  {
    "id": 2914,
    "wind2horizon_id": null,
    "lat": 45.299453,
    "lng": 13.622188,
    "name_en": "INA",
    "description_en": null
  },
  {
    "id": 3392,
    "wind2horizon_id": null,
    "lat": 44.8779324,
    "lng": 13.8199611,
    "name_en": "Luka's Haven",
    "description_en": null
  },
  {
    "id": 99,
    "wind2horizon_id": null,
    "lat": 47.321454,
    "lng": 13.195048,
    "name_en": "Snow Space Salzburg - St. Johann im Pongau",
    "description_en": "Huge resort with 3 ski areas, mountain huts & modern cable cars, plus hiking trails in summer."
  },
  {
    "id": 2332,
    "wind2horizon_id": null,
    "lat": 47.3471104,
    "lng": 13.2041664,
    "name_en": "TUI ReiseCenter Reisebüro Stranger",
    "description_en": null
  },
  {
    "id": 3387,
    "wind2horizon_id": null,
    "lat": 45.1274832,
    "lng": 13.6250246,
    "name_en": "Marina Valalta",
    "description_en": null
  },
  {
    "id": 2545,
    "wind2horizon_id": null,
    "lat": 45.5288905,
    "lng": 13.5656003,
    "name_en": "Restavracija Pavel",
    "description_en": null
  },
  {
    "id": 3403,
    "wind2horizon_id": null,
    "lat": 45.20426519999999,
    "lng": 13.5892309,
    "name_en": "Marina Parentium",
    "description_en": null
  },
  {
    "id": 3405,
    "wind2horizon_id": null,
    "lat": 45.1508565,
    "lng": 13.5989804,
    "name_en": "Marina Vrsar",
    "description_en": null
  },
  {
    "id": 3409,
    "wind2horizon_id": null,
    "lat": 44.8451569,
    "lng": 13.8478254,
    "name_en": "Marina Veruda",
    "description_en": null
  },
  {
    "id": 3415,
    "wind2horizon_id": null,
    "lat": 45.12195699999999,
    "lng": 14.8081514,
    "name_en": "MITAN MARINA",
    "description_en": null
  },
  {
    "id": 3416,
    "wind2horizon_id": null,
    "lat": 45.0290191,
    "lng": 14.6284126,
    "name_en": "Marina Punat Ltd.",
    "description_en": null
  },
  {
    "id": 3417,
    "wind2horizon_id": null,
    "lat": 44.803101,
    "lng": 14.7263067,
    "name_en": "ACI Marina Supetarska Draga",
    "description_en": null
  },
  {
    "id": 3202,
    "wind2horizon_id": null,
    "lat": 45.6502218,
    "lng": 13.7830973,
    "name_en": "Pronto Soccorso - Ospedale Maggiore",
    "description_en": null
  },
  {
    "id": 3418,
    "wind2horizon_id": null,
    "lat": 44.7583093,
    "lng": 14.7629856,
    "name_en": "ACI Marina Rab",
    "description_en": null
  },
  {
    "id": 3382,
    "wind2horizon_id": null,
    "lat": 45.31683049999999,
    "lng": 13.5615428,
    "name_en": "Luka Novigrad",
    "description_en": null
  },
  {
    "id": 88,
    "wind2horizon_id": null,
    "lat": 48.207521,
    "lng": 16.378672,
    "name_en": "Plachutta Wollzeile",
    "description_en": "Smart venue for Tafelspitz boiled beef & other classics of Viennese cuisine, with outdoor seating."
  },
  {
    "id": 90,
    "wind2horizon_id": null,
    "lat": 48.1858124,
    "lng": 16.3127641,
    "name_en": "Schönbrunn Palace",
    "description_en": "18th-century summer palace with tours of lavish rococo ceremonial rooms, plus gardens with a maze."
  },
  {
    "id": 96,
    "wind2horizon_id": null,
    "lat": 47.8021621,
    "lng": 13.0432009,
    "name_en": "Hotel Sacher Salzburg",
    "description_en": "Lavish hotel offering 3 refined restaurants, a cafe & a chocolaterie, as well as river views."
  },
  {
    "id": 2079,
    "wind2horizon_id": null,
    "lat": 47.346309,
    "lng": 13.2017865,
    "name_en": "Hotel Alpenland St. Johann",
    "description_en": "Relaxed property offering a restaurant, a pub & a bar, plus an indoor pool, saunas & hot tubs."
  },
  {
    "id": 3388,
    "wind2horizon_id": null,
    "lat": 45.0814131,
    "lng": 13.6355577,
    "name_en": "Port of Rovinj",
    "description_en": null
  },
  {
    "id": 3389,
    "wind2horizon_id": null,
    "lat": 45.08049099999999,
    "lng": 13.632803,
    "name_en": "Harbour of Rovinj",
    "description_en": null
  },
  {
    "id": 3390,
    "wind2horizon_id": null,
    "lat": 44.9118595,
    "lng": 13.8109251,
    "name_en": "Lučica Valbandon",
    "description_en": null
  },
  {
    "id": 3391,
    "wind2horizon_id": null,
    "lat": 44.8740276,
    "lng": 13.836088,
    "name_en": "Harbour of Pula/Pola",
    "description_en": null
  },
  {
    "id": 3393,
    "wind2horizon_id": null,
    "lat": 44.8750088,
    "lng": 13.8230569,
    "name_en": "Marina Polesana Pula",
    "description_en": null
  },
  {
    "id": 3242,
    "wind2horizon_id": null,
    "lat": 45.32660689999999,
    "lng": 14.4695779,
    "name_en": "Rađaonica",
    "description_en": null
  },
  {
    "id": 3385,
    "wind2horizon_id": null,
    "lat": 45.2238561,
    "lng": 13.5950553,
    "name_en": "Marina Poreč",
    "description_en": null
  },
  {
    "id": 3386,
    "wind2horizon_id": null,
    "lat": 45.1771058,
    "lng": 13.5980769,
    "name_en": "Marina Funtana",
    "description_en": null
  },
  {
    "id": 3383,
    "wind2horizon_id": null,
    "lat": 45.2749011,
    "lng": 13.5977285,
    "name_en": "Marina Cervar-Porat",
    "description_en": null
  },
  {
    "id": 3394,
    "wind2horizon_id": null,
    "lat": 43.66520388068192,
    "lng": 15.621735800985078,
    "name_en": null,
    "description_en": null
  },
  {
    "id": 3422,
    "wind2horizon_id": null,
    "lat": 44.1190005,
    "lng": 15.2278746,
    "name_en": "Marina Zadar",
    "description_en": null
  },
  {
    "id": 2080,
    "wind2horizon_id": null,
    "lat": 45.5169439,
    "lng": 13.5697685,
    "name_en": "Grand Hotel Bernardin",
    "description_en": "Laid-back seafront hotel featuring a spa & a seasonal indoor pool, plus dining, bars & a terrace."
  },
  {
    "id": 3423,
    "wind2horizon_id": null,
    "lat": 44.14329499999999,
    "lng": 14.848064,
    "name_en": "Marina Veli Rat",
    "description_en": null
  },
  {
    "id": 3424,
    "wind2horizon_id": null,
    "lat": 44.0957234,
    "lng": 15.1683271,
    "name_en": "Olive Island Marina Croatia Sutomiscica",
    "description_en": null
  },
  {
    "id": 3425,
    "wind2horizon_id": null,
    "lat": 44.0809536,
    "lng": 15.1892214,
    "name_en": "Marina Preko",
    "description_en": null
  },
  {
    "id": 3426,
    "wind2horizon_id": null,
    "lat": 44.0533708,
    "lng": 15.305874,
    "name_en": "Marina Dalmacija",
    "description_en": null
  },
  {
    "id": 3427,
    "wind2horizon_id": null,
    "lat": 44.0504194,
    "lng": 15.1103867,
    "name_en": "Marina Veli Iž",
    "description_en": null
  },
  {
    "id": 3428,
    "wind2horizon_id": null,
    "lat": 43.942583,
    "lng": 15.445618,
    "name_en": "Marina Kornati - Ilirija dd",
    "description_en": null
  },
  {
    "id": 3429,
    "wind2horizon_id": null,
    "lat": 43.9397056,
    "lng": 15.4418954,
    "name_en": "Marina Šangulin",
    "description_en": "Energetic harbor & boat marina in a natural cove, offering nearby eateries & markets."
  },
  {
    "id": 3430,
    "wind2horizon_id": null,
    "lat": 43.8829849,
    "lng": 15.2852365,
    "name_en": "ACI Marina ZUT",
    "description_en": null
  },
  {
    "id": 3432,
    "wind2horizon_id": null,
    "lat": 43.8260477,
    "lng": 15.5942908,
    "name_en": "Marina Hramina",
    "description_en": null
  },
  {
    "id": 3433,
    "wind2horizon_id": null,
    "lat": 43.82636189999999,
    "lng": 15.6025956,
    "name_en": "Marina Betina",
    "description_en": null
  },
  {
    "id": 3434,
    "wind2horizon_id": null,
    "lat": 43.7838587,
    "lng": 15.6430404,
    "name_en": "ACI Marina Jezera",
    "description_en": null
  },
  {
    "id": 3203,
    "wind2horizon_id": null,
    "lat": 45.6801725,
    "lng": 13.7538708,
    "name_en": "Centro Salute Mentale CSM - Sede di Barcola - ASUITS",
    "description_en": null
  },
  {
    "id": 3204,
    "wind2horizon_id": null,
    "lat": 45.6576977,
    "lng": 13.801051,
    "name_en": "Comprensorio Sanitario di Trieste (Guardiella) \"san Cilino\"",
    "description_en": null
  },
  {
    "id": 2887,
    "wind2horizon_id": null,
    "lat": 45.3176465,
    "lng": 13.5594377,
    "name_en": "Half 8 Restaurant, Novigrad",
    "description_en": null
  },
  {
    "id": 865,
    "wind2horizon_id": null,
    "lat": 45.0592216,
    "lng": 13.6241761,
    "name_en": "Maistra Select Island Hotel Istra",
    "description_en": "Refined resort on a secluded island, plus 5 restaurants, a modern spa & private beaches"
  },
  {
    "id": 92,
    "wind2horizon_id": null,
    "lat": 47.3134265,
    "lng": 13.1896781,
    "name_en": "Liechtensteinklamm",
    "description_en": "Deep, narrow gorge with footpaths, bridges, river & waterfall, only open in the summer months."
  },
  {
    "id": 100,
    "wind2horizon_id": null,
    "lat": 47.4430868,
    "lng": 12.3892092,
    "name_en": "Bergbahn AG Kitzbühel - KitzSki",
    "description_en": "Popular ski resort featuring a wide variety of challenging skiing & snowboarding slopes."
  },
  {
    "id": 3395,
    "wind2horizon_id": null,
    "lat": 37.6794215,
    "lng": 20.7827375,
    "name_en": "paltakis beach",
    "description_en": null
  },
  {
    "id": 2531,
    "wind2horizon_id": null,
    "lat": 45.527523,
    "lng": 13.5681324,
    "name_en": "Sergej Mašera Maritime Museum",
    "description_en": "Palace museum dating to 1800s housing a maritime museum with naval exhibits, photos & model ships."
  },
  {
    "id": 3435,
    "wind2horizon_id": null,
    "lat": 43.7553495,
    "lng": 15.746475,
    "name_en": "D-Marin Tribunj Marina",
    "description_en": null
  },
  {
    "id": 3205,
    "wind2horizon_id": null,
    "lat": 45.6154603,
    "lng": 13.8214136,
    "name_en": "Assistenza Farmaceutica AAS1 Triestina",
    "description_en": null
  },
  {
    "id": 3215,
    "wind2horizon_id": null,
    "lat": 45.2273297,
    "lng": 13.6056128,
    "name_en": "Hospital porec",
    "description_en": null
  },
  {
    "id": 2895,
    "wind2horizon_id": null,
    "lat": 45.486393,
    "lng": 13.5984581,
    "name_en": "Sečovlje/Sicciole Saltpans Nature Park",
    "description_en": "Salt pans cultivated for around 700 years, in a park home to egrets, brine shrimp & rare plants."
  },
  {
    "id": 2896,
    "wind2horizon_id": null,
    "lat": 45.4900956,
    "lng": 13.4910909,
    "name_en": "Savudrija Lighthouse",
    "description_en": null
  },
  {
    "id": 3438,
    "wind2horizon_id": null,
    "lat": 43.7197058,
    "lng": 15.9008388,
    "name_en": "D-Marin Mandalina Marina",
    "description_en": null
  },
  {
    "id": 3439,
    "wind2horizon_id": null,
    "lat": 43.7003789,
    "lng": 15.8773788,
    "name_en": "Amadria Yacht Marines",
    "description_en": null
  },
  {
    "id": 3440,
    "wind2horizon_id": null,
    "lat": 43.5718869,
    "lng": 15.9407407,
    "name_en": "Marina Kremik d.o.o.",
    "description_en": null
  },
  {
    "id": 3442,
    "wind2horizon_id": null,
    "lat": 43.5137033,
    "lng": 16.112295,
    "name_en": "Marina Agana",
    "description_en": null
  },
  {
    "id": 3443,
    "wind2horizon_id": null,
    "lat": 43.5134078,
    "lng": 16.248892,
    "name_en": "ACI Marina Trogir",
    "description_en": null
  },
  {
    "id": 3444,
    "wind2horizon_id": null,
    "lat": 43.5466853,
    "lng": 16.4024202,
    "name_en": "Marina Kastela",
    "description_en": null
  },
  {
    "id": 3445,
    "wind2horizon_id": null,
    "lat": 43.5010902,
    "lng": 16.4300001,
    "name_en": "ACI marina Split",
    "description_en": null
  },
  {
    "id": 3447,
    "wind2horizon_id": null,
    "lat": 43.491491,
    "lng": 16.537517,
    "name_en": "Marina Lav",
    "description_en": null
  },
  {
    "id": 3449,
    "wind2horizon_id": null,
    "lat": 43.3585628,
    "lng": 16.9455223,
    "name_en": "Luka Baška Voda",
    "description_en": null
  },
  {
    "id": 3450,
    "wind2horizon_id": null,
    "lat": 43.2642903,
    "lng": 17.0569215,
    "name_en": "Marina Tučepi",
    "description_en": null
  },
  {
    "id": 3451,
    "wind2horizon_id": null,
    "lat": 43.3253455,
    "lng": 16.4481596,
    "name_en": "ACI - Milna",
    "description_en": null
  },
  {
    "id": 3218,
    "wind2horizon_id": null,
    "lat": 44.8659542,
    "lng": 13.857433,
    "name_en": "Opća bolnica Pula",
    "description_en": null
  },
  {
    "id": 3396,
    "wind2horizon_id": null,
    "lat": 47.3180917,
    "lng": 13.1991778,
    "name_en": "Gut Berg Naturhotel",
    "description_en": "Airy rooms in a relaxed venue offering direct ski access, dining, a spa & an indoor pool."
  },
  {
    "id": 2913,
    "wind2horizon_id": null,
    "lat": 45.43249,
    "lng": 13.530883,
    "name_en": "Shell",
    "description_en": null
  },
  {
    "id": 2938,
    "wind2horizon_id": null,
    "lat": 44.82705079999999,
    "lng": 13.8790314,
    "name_en": "Petrol",
    "description_en": null
  },
  {
    "id": 3452,
    "wind2horizon_id": null,
    "lat": 43.1787008,
    "lng": 16.6758689,
    "name_en": "ACI Vrboska",
    "description_en": null
  },
  {
    "id": 3453,
    "wind2horizon_id": null,
    "lat": 43.1623352,
    "lng": 16.3926776,
    "name_en": "ACI Marina Palmižana",
    "description_en": null
  },
  {
    "id": 3454,
    "wind2horizon_id": null,
    "lat": 42.973878,
    "lng": 17.174053,
    "name_en": "Port Orebić",
    "description_en": null
  },
  {
    "id": 3455,
    "wind2horizon_id": null,
    "lat": 42.95864599999999,
    "lng": 17.1356688,
    "name_en": "ACI Marina Korčula",
    "description_en": null
  },
  {
    "id": 3456,
    "wind2horizon_id": null,
    "lat": 42.9240612,
    "lng": 17.1725133,
    "name_en": "Lučica Lumbarda",
    "description_en": null
  },
  {
    "id": 3457,
    "wind2horizon_id": null,
    "lat": 42.6710606,
    "lng": 18.1257027,
    "name_en": "ACI Marina Dubrovnik",
    "description_en": null
  },
  {
    "id": 3506,
    "wind2horizon_id": null,
    "lat": 43.1839695,
    "lng": 16.5927911,
    "name_en": "Split Harbour Master's Office - Stari Grad Outpost",
    "description_en": null
  },
  {
    "id": 3511,
    "wind2horizon_id": null,
    "lat": 44.5126292,
    "lng": 14.3113322,
    "name_en": "Susak port",
    "description_en": null
  },
  {
    "id": 3220,
    "wind2horizon_id": null,
    "lat": 44.8667913,
    "lng": 13.8462449,
    "name_en": "Specijalna bolnica Sveta Katarina Zabok",
    "description_en": null
  },
  {
    "id": 2900,
    "wind2horizon_id": null,
    "lat": 45.59283,
    "lng": 13.72411,
    "name_en": "INA Lazaret",
    "description_en": null
  },
  {
    "id": 3226,
    "wind2horizon_id": null,
    "lat": 44.5172791,
    "lng": 14.5019926,
    "name_en": "Sanatorium Veli Lošinj",
    "description_en": null
  },
  {
    "id": 3227,
    "wind2horizon_id": null,
    "lat": 44.5191313,
    "lng": 14.5022154,
    "name_en": "Sanatorium für Asthmakranke Kinder aus der DDR 1968-1990",
    "description_en": null
  },
  {
    "id": 2941,
    "wind2horizon_id": null,
    "lat": 44.834197,
    "lng": 13.922191,
    "name_en": "Shell",
    "description_en": null
  },
  {
    "id": 3230,
    "wind2horizon_id": null,
    "lat": 45.3326229,
    "lng": 14.4256751,
    "name_en": "Clinical Hospital Center Rijeka",
    "description_en": null
  },
  {
    "id": 3231,
    "wind2horizon_id": null,
    "lat": 45.3256413,
    "lng": 14.4700225,
    "name_en": "Rijeka Clinical Hospital Center Sušak Locality",
    "description_en": null
  },
  {
    "id": 3232,
    "wind2horizon_id": null,
    "lat": 45.299176,
    "lng": 14.2781813,
    "name_en": "Clinic for Orthopedics Lovran",
    "description_en": null
  },
  {
    "id": 2935,
    "wind2horizon_id": null,
    "lat": 45.0847285,
    "lng": 13.6344352,
    "name_en": "Boat fueling station",
    "description_en": null
  },
  {
    "id": 2939,
    "wind2horizon_id": null,
    "lat": 44.82056840000001,
    "lng": 13.9312875,
    "name_en": "INA Medulin",
    "description_en": null
  },
  {
    "id": 2940,
    "wind2horizon_id": null,
    "lat": 44.8381197,
    "lng": 13.8433856,
    "name_en": "Boat Gas station Marina Veruda BP Crno Zlato",
    "description_en": null
  },
  {
    "id": 3397,
    "wind2horizon_id": null,
    "lat": 45.075565,
    "lng": 13.636093,
    "name_en": "ACI Marina Rovinj",
    "description_en": null
  },
  {
    "id": 3459,
    "wind2horizon_id": null,
    "lat": 44.96934460000001,
    "lng": 14.7616262,
    "name_en": "Baška Harbor",
    "description_en": null
  },
  {
    "id": 2942,
    "wind2horizon_id": null,
    "lat": 44.8143153,
    "lng": 13.9274306,
    "name_en": "Petrol Station Flash, za brodove (boats)",
    "description_en": null
  },
  {
    "id": 2943,
    "wind2horizon_id": null,
    "lat": 44.9327085,
    "lng": 13.8913341,
    "name_en": "INA",
    "description_en": null
  },
  {
    "id": 2944,
    "wind2horizon_id": null,
    "lat": 44.93359239999999,
    "lng": 13.8893216,
    "name_en": "INA",
    "description_en": null
  },
  {
    "id": 2945,
    "wind2horizon_id": null,
    "lat": 44.8553489,
    "lng": 13.8426913,
    "name_en": "INA",
    "description_en": null
  },
  {
    "id": 2533,
    "wind2horizon_id": null,
    "lat": 45.52856389999999,
    "lng": 13.5683639,
    "name_en": "Tartinijev trg",
    "description_en": "A monument sits in the center of this bustling square surrounded by bars & restaurants."
  },
  {
    "id": 3234,
    "wind2horizon_id": null,
    "lat": 45.32719849999999,
    "lng": 14.4468397,
    "name_en": "Specialty hospital MEDICO",
    "description_en": null
  },
  {
    "id": 3481,
    "wind2horizon_id": null,
    "lat": 42.6588885,
    "lng": 18.0861263,
    "name_en": "Harbour Master Office",
    "description_en": null
  },
  {
    "id": 3235,
    "wind2horizon_id": null,
    "lat": 45.3271224,
    "lng": 14.4692725,
    "name_en": "Bolnica za majku i dijete Rijeka",
    "description_en": null
  },
  {
    "id": 3236,
    "wind2horizon_id": null,
    "lat": 45.3319306,
    "lng": 14.4270913,
    "name_en": "KBC Rijeka - lokalitet Rijeka",
    "description_en": null
  },
  {
    "id": 3498,
    "wind2horizon_id": null,
    "lat": 44.7549808,
    "lng": 14.7622323,
    "name_en": "Hafenmeister",
    "description_en": null
  },
  {
    "id": 2960,
    "wind2horizon_id": null,
    "lat": 44.9548735,
    "lng": 13.8493735,
    "name_en": "INA",
    "description_en": null
  },
  {
    "id": 3207,
    "wind2horizon_id": null,
    "lat": 45.6565347,
    "lng": 13.801055,
    "name_en": "ASUGI",
    "description_en": null
  },
  {
    "id": 2901,
    "wind2horizon_id": null,
    "lat": 45.5355223,
    "lng": 13.6717353,
    "name_en": "Petrol, BS Izola - Industrijska",
    "description_en": null
  },
  {
    "id": 3007,
    "wind2horizon_id": null,
    "lat": 44.118574,
    "lng": 15.271994,
    "name_en": "Shell BS Zadar Crno",
    "description_en": null
  },
  {
    "id": 3504,
    "wind2horizon_id": null,
    "lat": 43.73411979999999,
    "lng": 15.8910608,
    "name_en": "Harbour Master Office Šibenik",
    "description_en": null
  },
  {
    "id": 3309,
    "wind2horizon_id": null,
    "lat": 43.9381175,
    "lng": 15.4458679,
    "name_en": "Poliklinika More Med",
    "description_en": null
  },
  {
    "id": 3514,
    "wind2horizon_id": null,
    "lat": 43.7980121,
    "lng": 15.642852,
    "name_en": "Lučka kapetanija Šibenik - ispostava Tisno",
    "description_en": null
  },
  {
    "id": 3516,
    "wind2horizon_id": null,
    "lat": 43.0088917,
    "lng": 17.2664221,
    "name_en": "The Port Master Office",
    "description_en": null
  },
  {
    "id": 2961,
    "wind2horizon_id": null,
    "lat": 44.85750059999999,
    "lng": 13.87769,
    "name_en": "Gas Oil Pula",
    "description_en": null
  },
  {
    "id": 2963,
    "wind2horizon_id": null,
    "lat": 45.0244483,
    "lng": 14.5707578,
    "name_en": "INA",
    "description_en": null
  },
  {
    "id": 3156,
    "wind2horizon_id": null,
    "lat": 43.17987,
    "lng": 16.57961,
    "name_en": "Shell",
    "description_en": null
  },
  {
    "id": 3010,
    "wind2horizon_id": null,
    "lat": 44.114187,
    "lng": 15.40713,
    "name_en": "Shell",
    "description_en": null
  },
  {
    "id": 3237,
    "wind2horizon_id": null,
    "lat": 45.3306692,
    "lng": 14.4393738,
    "name_en": "DR. DARKO JAKOVAC, specialist clinic",
    "description_en": null
  },
  {
    "id": 3012,
    "wind2horizon_id": null,
    "lat": 45.3600742,
    "lng": 14.4935488,
    "name_en": "INA",
    "description_en": null
  },
  {
    "id": 3014,
    "wind2horizon_id": null,
    "lat": 45.3635043,
    "lng": 14.3265821,
    "name_en": "INA",
    "description_en": null
  },
  {
    "id": 3238,
    "wind2horizon_id": null,
    "lat": 45.3329236,
    "lng": 14.4279685,
    "name_en": "Bolnice lokalitet Rijeka",
    "description_en": null
  },
  {
    "id": 3458,
    "wind2horizon_id": null,
    "lat": 45.2869513,
    "lng": 14.5743296,
    "name_en": "MARINE ING.S.HORVAT D.O.O.",
    "description_en": null
  },
  {
    "id": 3465,
    "wind2horizon_id": null,
    "lat": 45.3238,
    "lng": 14.4408135,
    "name_en": "Harbourmaster's Office",
    "description_en": null
  },
  {
    "id": 3529,
    "wind2horizon_id": null,
    "lat": 45.15258070000001,
    "lng": 18.0151253,
    "name_en": "port Authority",
    "description_en": null
  },
  {
    "id": 3524,
    "wind2horizon_id": null,
    "lat": 45.5606531,
    "lng": 18.7239284,
    "name_en": "HAMMER Ltd.",
    "description_en": null
  },
  {
    "id": 3016,
    "wind2horizon_id": null,
    "lat": 45.3564626,
    "lng": 14.4874776,
    "name_en": "Ina",
    "description_en": null
  },
  {
    "id": 3460,
    "wind2horizon_id": null,
    "lat": 43.5066969,
    "lng": 16.4393945,
    "name_en": "Harbour Master's Office Split",
    "description_en": null
  },
  {
    "id": 3008,
    "wind2horizon_id": null,
    "lat": 44.121267,
    "lng": 15.2609898,
    "name_en": "LPG kamp gas fill station",
    "description_en": null
  },
  {
    "id": 3018,
    "wind2horizon_id": null,
    "lat": 45.3420561,
    "lng": 14.3712217,
    "name_en": "INA",
    "description_en": null
  },
  {
    "id": 3020,
    "wind2horizon_id": null,
    "lat": 45.2871904,
    "lng": 14.546653,
    "name_en": "Ina RIJEKA PUNILIŠTE",
    "description_en": null
  },
  {
    "id": 3398,
    "wind2horizon_id": null,
    "lat": 43.9621868,
    "lng": 15.4284425,
    "name_en": "Sveti Filip i Jakov",
    "description_en": null
  },
  {
    "id": 3513,
    "wind2horizon_id": null,
    "lat": 44.929422,
    "lng": 14.9198022,
    "name_en": "LUČKA KAPETANIJA SENJ, Lučka ispostava SVETI JURAJ",
    "description_en": null
  },
  {
    "id": 3518,
    "wind2horizon_id": null,
    "lat": 45.43397969999999,
    "lng": 13.5177386,
    "name_en": "Lučka kapetanija Pula - ispostava Umag",
    "description_en": null
  },
  {
    "id": 3463,
    "wind2horizon_id": null,
    "lat": 42.5811493,
    "lng": 18.2195207,
    "name_en": "Harbourmaster`s office Cavtat",
    "description_en": null
  },
  {
    "id": 3472,
    "wind2horizon_id": null,
    "lat": 43.0440395,
    "lng": 16.0878561,
    "name_en": "KOMIŽA TOWN HARBOUR",
    "description_en": null
  },
  {
    "id": 3491,
    "wind2horizon_id": null,
    "lat": 44.44444499999999,
    "lng": 15.0533782,
    "name_en": "Lučka kapetanija Zadar - ispostava Pag",
    "description_en": null
  },
  {
    "id": 3196,
    "wind2horizon_id": null,
    "lat": 45.6354644,
    "lng": 13.7853973,
    "name_en": "Children's hospital \"Burlo Garofolo\"",
    "description_en": null
  },
  {
    "id": 3521,
    "wind2horizon_id": null,
    "lat": 43.7565208,
    "lng": 15.7745934,
    "name_en": "Harbor Master's Office Vodice",
    "description_en": null
  },
  {
    "id": 3199,
    "wind2horizon_id": null,
    "lat": 45.64485380000001,
    "lng": 13.7632968,
    "name_en": "Casa di Cura Salus",
    "description_en": null
  },
  {
    "id": 3497,
    "wind2horizon_id": null,
    "lat": 44.8730672,
    "lng": 13.847649,
    "name_en": "Harbor Master's Office Pula",
    "description_en": null
  },
  {
    "id": 3176,
    "wind2horizon_id": null,
    "lat": 45.5810028,
    "lng": 13.7274851,
    "name_en": "Orthopedic Hospital Valdoltra",
    "description_en": null
  },
  {
    "id": 3011,
    "wind2horizon_id": null,
    "lat": 44.2855676,
    "lng": 15.1229848,
    "name_en": "Tri Bartola d.o.o.",
    "description_en": null
  },
  {
    "id": 3004,
    "wind2horizon_id": null,
    "lat": 44.140518,
    "lng": 15.228063,
    "name_en": "Shell",
    "description_en": null
  },
  {
    "id": 2968,
    "wind2horizon_id": null,
    "lat": 45.0241543,
    "lng": 14.5737785,
    "name_en": "Krk boat fuel station",
    "description_en": null
  },
  {
    "id": 2958,
    "wind2horizon_id": null,
    "lat": 44.8618367,
    "lng": 13.8632213,
    "name_en": "Petrol",
    "description_en": null
  },
  {
    "id": 2974,
    "wind2horizon_id": null,
    "lat": 44.9742854,
    "lng": 14.7434823,
    "name_en": "Benzinska postaja In’Sol",
    "description_en": null
  },
  {
    "id": 2988,
    "wind2horizon_id": null,
    "lat": 44.5570496,
    "lng": 14.8813777,
    "name_en": "Sea Gas Point Novalja",
    "description_en": null
  },
  {
    "id": 3042,
    "wind2horizon_id": null,
    "lat": 45.3084576,
    "lng": 14.4925455,
    "name_en": "Ina Industrija Nafte D.D. - Služba Održavanja Rafinerije Nafte",
    "description_en": null
  },
  {
    "id": 3048,
    "wind2horizon_id": null,
    "lat": 45.32371879999999,
    "lng": 14.5114535,
    "name_en": "Rijeka Trans D.O.O. BP",
    "description_en": null
  },
  {
    "id": 3050,
    "wind2horizon_id": null,
    "lat": 45.3553104,
    "lng": 14.3915237,
    "name_en": "Petrol",
    "description_en": null
  },
  {
    "id": 3239,
    "wind2horizon_id": null,
    "lat": 45.36404719999999,
    "lng": 14.3134776,
    "name_en": "Specijalna bolnica dr. Nemec",
    "description_en": null
  },
  {
    "id": 3414,
    "wind2horizon_id": null,
    "lat": 45.12770099999999,
    "lng": 14.7863833,
    "name_en": "Marina Novi",
    "description_en": null
  },
  {
    "id": 2995,
    "wind2horizon_id": null,
    "lat": 44.19007819999999,
    "lng": 15.1805238,
    "name_en": "Petrol",
    "description_en": null
  },
  {
    "id": 3240,
    "wind2horizon_id": null,
    "lat": 45.3336307,
    "lng": 14.4276439,
    "name_en": "KBC Rijeka, Klinika za otorinolaringologiju i kirurgiju glave i vrata",
    "description_en": null
  },
  {
    "id": 2959,
    "wind2horizon_id": null,
    "lat": 44.8575902,
    "lng": 13.8773086,
    "name_en": "Myjnia samochodowa",
    "description_en": null
  },
  {
    "id": 2965,
    "wind2horizon_id": null,
    "lat": 45.0241133,
    "lng": 14.5737744,
    "name_en": "Crno Zlato d o o BP KRK",
    "description_en": null
  },
  {
    "id": 3420,
    "wind2horizon_id": null,
    "lat": 44.4710417,
    "lng": 14.9550749,
    "name_en": "ACI Marina Šimuni",
    "description_en": null
  },
  {
    "id": 3102,
    "wind2horizon_id": null,
    "lat": 43.7762875,
    "lng": 15.9598427,
    "name_en": "Tromilja benzin",
    "description_en": null
  },
  {
    "id": 3221,
    "wind2horizon_id": null,
    "lat": 44.8671303,
    "lng": 13.847715,
    "name_en": "AED Definrillatob",
    "description_en": null
  },
  {
    "id": 3243,
    "wind2horizon_id": null,
    "lat": 45.3357685,
    "lng": 14.3060018,
    "name_en": "Emergency",
    "description_en": null
  },
  {
    "id": 3368,
    "wind2horizon_id": null,
    "lat": 43.1730855,
    "lng": 16.4358767,
    "name_en": "DZ Hvar",
    "description_en": null
  },
  {
    "id": 3083,
    "wind2horizon_id": null,
    "lat": 44.0303662,
    "lng": 15.6088012,
    "name_en": "Asseria oil",
    "description_en": null
  },
  {
    "id": 3084,
    "wind2horizon_id": null,
    "lat": 44.0780186,
    "lng": 15.3883917,
    "name_en": "Galovac Petrol",
    "description_en": null
  },
  {
    "id": 3462,
    "wind2horizon_id": null,
    "lat": 44.13978669999999,
    "lng": 14.9070047,
    "name_en": "Sportska Luka Božava",
    "description_en": null
  },
  {
    "id": 3412,
    "wind2horizon_id": null,
    "lat": 45.313845,
    "lng": 14.2878059,
    "name_en": "ACI Marina Opatija",
    "description_en": null
  },
  {
    "id": 3413,
    "wind2horizon_id": null,
    "lat": 45.3275618,
    "lng": 14.300479,
    "name_en": "Marina admiral",
    "description_en": "Port for cruising vessels, yachts & boats, flanked by restaurants, hotels & water views."
  },
  {
    "id": 3421,
    "wind2horizon_id": null,
    "lat": 44.1289934,
    "lng": 15.2111313,
    "name_en": "D-Marin Borik Marina",
    "description_en": null
  },
  {
    "id": 3461,
    "wind2horizon_id": null,
    "lat": 43.1630924,
    "lng": 16.6941645,
    "name_en": "Harbourmaster’s office",
    "description_en": null
  },
  {
    "id": 3484,
    "wind2horizon_id": null,
    "lat": 43.82537929999999,
    "lng": 15.5967504,
    "name_en": "Amfora - Tourist agency and rent a boat",
    "description_en": null
  },
  {
    "id": 3470,
    "wind2horizon_id": null,
    "lat": 44.5262023,
    "lng": 15.0717504,
    "name_en": "Boat travel Semisubmarine MaDi Team",
    "description_en": null
  },
  {
    "id": 3244,
    "wind2horizon_id": null,
    "lat": 45.3325578,
    "lng": 14.4265063,
    "name_en": "Poliklinika",
    "description_en": null
  },
  {
    "id": 3245,
    "wind2horizon_id": null,
    "lat": 45.331796,
    "lng": 14.4293391,
    "name_en": "City Of Rijeka CHC - IT department",
    "description_en": null
  },
  {
    "id": 3246,
    "wind2horizon_id": null,
    "lat": 45.3223364,
    "lng": 14.5278019,
    "name_en": "Health centar Skrljevo",
    "description_en": null
  },
  {
    "id": 3247,
    "wind2horizon_id": null,
    "lat": 45.3337016,
    "lng": 14.4275875,
    "name_en": "Dnevna bolnica",
    "description_en": null
  },
  {
    "id": 3248,
    "wind2horizon_id": null,
    "lat": 45.3795395,
    "lng": 14.3855507,
    "name_en": "Ordinacija Opće Medicine",
    "description_en": null
  },
  {
    "id": 3233,
    "wind2horizon_id": null,
    "lat": 45.32687610000001,
    "lng": 14.4690603,
    "name_en": "Dječja bolnica Sušak",
    "description_en": null
  },
  {
    "id": 3249,
    "wind2horizon_id": null,
    "lat": 45.326071,
    "lng": 14.471317,
    "name_en": "KBC Rijeka Rodilište",
    "description_en": null
  },
  {
    "id": 3250,
    "wind2horizon_id": null,
    "lat": 45.3779738,
    "lng": 14.441012,
    "name_en": "Lopača Psychiatric Hospital",
    "description_en": null
  },
  {
    "id": 3251,
    "wind2horizon_id": null,
    "lat": 45.3323303,
    "lng": 14.4287206,
    "name_en": "Klinika za psihijatriju",
    "description_en": null
  },
  {
    "id": 3110,
    "wind2horizon_id": null,
    "lat": 43.69163469999999,
    "lng": 16.0366598,
    "name_en": "Lukoil - Vrpolje West",
    "description_en": null
  },
  {
    "id": 3252,
    "wind2horizon_id": null,
    "lat": 45.3329844,
    "lng": 14.427775,
    "name_en": "Klinika za neurologiju",
    "description_en": null
  },
  {
    "id": 3255,
    "wind2horizon_id": null,
    "lat": 45.3472203,
    "lng": 14.3146184,
    "name_en": "Center of cosmetic surgery dr.Žgaljardić",
    "description_en": null
  },
  {
    "id": 3256,
    "wind2horizon_id": null,
    "lat": 45.3632835,
    "lng": 14.3213847,
    "name_en": "Ordinacija dentalne medicine dr.med.dent. Zoran Puškarić",
    "description_en": null
  },
  {
    "id": 3257,
    "wind2horizon_id": null,
    "lat": 45.3320037,
    "lng": 14.4274276,
    "name_en": "Department of digestive surgery",
    "description_en": null
  },
  {
    "id": 3241,
    "wind2horizon_id": null,
    "lat": 45.3289888,
    "lng": 14.3001353,
    "name_en": "Thalassotherapy Opatija",
    "description_en": null
  },
  {
    "id": 3258,
    "wind2horizon_id": null,
    "lat": 45.3392552,
    "lng": 14.4005347,
    "name_en": "AlphaMedic - Walk in klinika (pregled liječnika bez naručivanja) i DripLounge (vitaminske infuzije)",
    "description_en": null
  },
  {
    "id": 3259,
    "wind2horizon_id": null,
    "lat": 45.3322408,
    "lng": 14.4293082,
    "name_en": "Clinic for Infectious Diseases",
    "description_en": null
  },
  {
    "id": 3254,
    "wind2horizon_id": null,
    "lat": 45.3487592,
    "lng": 14.4206559,
    "name_en": "KRGA-GARDIĆ JADRANKA dr.",
    "description_en": null
  },
  {
    "id": 3260,
    "wind2horizon_id": null,
    "lat": 45.3415529,
    "lng": 14.4079636,
    "name_en": "Dom Turnić",
    "description_en": null
  },
  {
    "id": 3262,
    "wind2horizon_id": null,
    "lat": 45.3430111,
    "lng": 14.390577,
    "name_en": "Služba školske medicine, Ambulanta Zamet,",
    "description_en": null
  },
  {
    "id": 3263,
    "wind2horizon_id": null,
    "lat": 45.35859869999999,
    "lng": 14.489749,
    "name_en": "Poliklinika Laser RI",
    "description_en": null
  },
  {
    "id": 3264,
    "wind2horizon_id": null,
    "lat": 45.327039,
    "lng": 14.4689787,
    "name_en": "Odjel za intenzivno liječenje novorođenčadi",
    "description_en": null
  },
  {
    "id": 3145,
    "wind2horizon_id": null,
    "lat": 43.50680089999999,
    "lng": 16.5069299,
    "name_en": "NORMA d.o.o.",
    "description_en": null
  },
  {
    "id": 3147,
    "wind2horizon_id": null,
    "lat": 43.549903,
    "lng": 16.304622,
    "name_en": "Shell",
    "description_en": null
  },
  {
    "id": 3134,
    "wind2horizon_id": null,
    "lat": 43.5122467,
    "lng": 16.4574129,
    "name_en": "Ina Plokite",
    "description_en": null
  },
  {
    "id": 3261,
    "wind2horizon_id": null,
    "lat": 45.3270631,
    "lng": 14.442176,
    "name_en": "Policlinico rident",
    "description_en": null
  },
  {
    "id": 3266,
    "wind2horizon_id": null,
    "lat": 45.3467785,
    "lng": 14.3510663,
    "name_en": "Informativni ured Acibadem Hrvatska",
    "description_en": null
  },
  {
    "id": 3265,
    "wind2horizon_id": null,
    "lat": 45.3332553,
    "lng": 14.4273269,
    "name_en": "Odjel Audiologije, Rijeka",
    "description_en": null
  },
  {
    "id": 3267,
    "wind2horizon_id": null,
    "lat": 45.3608604,
    "lng": 14.3544891,
    "name_en": "Fiorella La Guardina 5",
    "description_en": null
  },
  {
    "id": 3268,
    "wind2horizon_id": null,
    "lat": 45.3392,
    "lng": 14.3846424,
    "name_en": "Zavod za vještačenje, profesionalnu rehabilitaciju i zapošljavanje osoba s invaliditetom",
    "description_en": null
  },
  {
    "id": 3269,
    "wind2horizon_id": null,
    "lat": 45.3215156,
    "lng": 14.4684321,
    "name_en": "SANTETSKI PRIJEVOZ NEPOKRETNIH I TESKO POKRETNIH ,AMBULANTNI PRJEVOZ PRIJEVOZ INVALIDA",
    "description_en": null
  },
  {
    "id": 3270,
    "wind2horizon_id": null,
    "lat": 45.3262875,
    "lng": 14.4445882,
    "name_en": "Rogatec Bolnica",
    "description_en": null
  },
  {
    "id": 3271,
    "wind2horizon_id": null,
    "lat": 45.3326222,
    "lng": 14.4256781,
    "name_en": "Ligonine",
    "description_en": null
  },
  {
    "id": 3272,
    "wind2horizon_id": null,
    "lat": 45.3270631,
    "lng": 14.442176,
    "name_en": "Policlinico Zambelli",
    "description_en": null
  },
  {
    "id": 3273,
    "wind2horizon_id": null,
    "lat": 45.3269923,
    "lng": 14.4465544,
    "name_en": "Prilaz Monte Cappelletta 5, 52100 Pula",
    "description_en": null
  },
  {
    "id": 3274,
    "wind2horizon_id": null,
    "lat": 45.3258567,
    "lng": 14.4704996,
    "name_en": "Pulmologija",
    "description_en": null
  },
  {
    "id": 3275,
    "wind2horizon_id": null,
    "lat": 45.3258567,
    "lng": 14.4704996,
    "name_en": "Radiologija Magnetska rezonanca",
    "description_en": null
  },
  {
    "id": 3276,
    "wind2horizon_id": null,
    "lat": 45.3320454,
    "lng": 14.4271091,
    "name_en": "Radiologija Magnetska rezonanca",
    "description_en": null
  },
  {
    "id": 3277,
    "wind2horizon_id": null,
    "lat": 45.3320454,
    "lng": 14.4271091,
    "name_en": "Radiologija utz",
    "description_en": null
  },
  {
    "id": 3278,
    "wind2horizon_id": null,
    "lat": 45.3892387,
    "lng": 14.4665187,
    "name_en": "Privatna fizikalna terapija Maja Maržić",
    "description_en": null
  },
  {
    "id": 3082,
    "wind2horizon_id": null,
    "lat": 44.0308664,
    "lng": 15.6065099,
    "name_en": "INA",
    "description_en": null
  },
  {
    "id": 3179,
    "wind2horizon_id": null,
    "lat": 45.5444241,
    "lng": 13.6870967,
    "name_en": "Oddelek za Kirurgijo",
    "description_en": null
  },
  {
    "id": 3183,
    "wind2horizon_id": null,
    "lat": 45.5444241,
    "lng": 13.6870966,
    "name_en": "Heliport Splošne Bolnišnice Izola",
    "description_en": null
  },
  {
    "id": 3185,
    "wind2horizon_id": null,
    "lat": 45.5085335,
    "lng": 13.5958488,
    "name_en": "Ginekoloska ambulanta mladen mrkajoc",
    "description_en": null
  },
  {
    "id": 3186,
    "wind2horizon_id": null,
    "lat": 45.5346565,
    "lng": 13.6608324,
    "name_en": "Medical Center Izola",
    "description_en": null
  },
  {
    "id": 3190,
    "wind2horizon_id": null,
    "lat": 45.5479957,
    "lng": 13.7301732,
    "name_en": "Ijaz House",
    "description_en": null
  },
  {
    "id": 3191,
    "wind2horizon_id": null,
    "lat": 45.4326918,
    "lng": 13.5247141,
    "name_en": "Health Center Umag Ambulance",
    "description_en": null
  },
  {
    "id": 3192,
    "wind2horizon_id": null,
    "lat": 45.436877,
    "lng": 13.5303697,
    "name_en": "Darija Juričić",
    "description_en": null
  },
  {
    "id": 3195,
    "wind2horizon_id": null,
    "lat": 45.6463447,
    "lng": 13.7893646,
    "name_en": "Sanatorio Triestino",
    "description_en": null
  },
  {
    "id": 3149,
    "wind2horizon_id": null,
    "lat": 43.589227,
    "lng": 16.577613,
    "name_en": "Shell",
    "description_en": null
  },
  {
    "id": 3286,
    "wind2horizon_id": null,
    "lat": 44.5465579,
    "lng": 14.8918129,
    "name_en": "Poliklinika",
    "description_en": null
  },
  {
    "id": 2902,
    "wind2horizon_id": null,
    "lat": 45.550768,
    "lng": 13.7277044,
    "name_en": "MOL",
    "description_en": null
  },
  {
    "id": 2903,
    "wind2horizon_id": null,
    "lat": 45.53846859999999,
    "lng": 13.6563578,
    "name_en": "DISCONT Oil – Bencinska črpalka Izola",
    "description_en": null
  },
  {
    "id": 2905,
    "wind2horizon_id": null,
    "lat": 45.5404958,
    "lng": 13.7260184,
    "name_en": "MOL",
    "description_en": null
  },
  {
    "id": 2906,
    "wind2horizon_id": null,
    "lat": 45.50043,
    "lng": 13.61022,
    "name_en": "MOL",
    "description_en": null
  },
  {
    "id": 2907,
    "wind2horizon_id": null,
    "lat": 45.5247017,
    "lng": 13.6507286,
    "name_en": "Petrol BS - Jagodje - South",
    "description_en": null
  },
  {
    "id": 2908,
    "wind2horizon_id": null,
    "lat": 45.5151236,
    "lng": 13.5807993,
    "name_en": "MOL",
    "description_en": null
  },
  {
    "id": 2909,
    "wind2horizon_id": null,
    "lat": 45.431259,
    "lng": 13.5265464,
    "name_en": "INA",
    "description_en": null
  },
  {
    "id": 2910,
    "wind2horizon_id": null,
    "lat": 45.4399661,
    "lng": 13.519012,
    "name_en": "INA",
    "description_en": null
  },
  {
    "id": 2911,
    "wind2horizon_id": null,
    "lat": 45.4312421,
    "lng": 13.5301577,
    "name_en": "Petrol",
    "description_en": null
  },
  {
    "id": 3473,
    "wind2horizon_id": null,
    "lat": 42.9601266,
    "lng": 17.134843,
    "name_en": "Croatian Institute for Pension Insurance (Korchula Office)",
    "description_en": null
  },
  {
    "id": 2912,
    "wind2horizon_id": null,
    "lat": 45.492115,
    "lng": 13.508227,
    "name_en": "Crodux",
    "description_en": null
  },
  {
    "id": 2915,
    "wind2horizon_id": null,
    "lat": 45.31852199999999,
    "lng": 13.5648114,
    "name_en": "Petrol",
    "description_en": null
  },
  {
    "id": 2916,
    "wind2horizon_id": null,
    "lat": 45.3187536,
    "lng": 13.5739196,
    "name_en": "Crodux",
    "description_en": null
  },
  {
    "id": 2917,
    "wind2horizon_id": null,
    "lat": 45.29811429999999,
    "lng": 13.6217294,
    "name_en": "Aldo Commerce",
    "description_en": null
  },
  {
    "id": 2921,
    "wind2horizon_id": null,
    "lat": 45.2394883,
    "lng": 13.6243333,
    "name_en": "Petrol",
    "description_en": null
  },
  {
    "id": 2922,
    "wind2horizon_id": null,
    "lat": 45.2364008,
    "lng": 13.6039619,
    "name_en": "Petrol",
    "description_en": null
  },
  {
    "id": 2924,
    "wind2horizon_id": null,
    "lat": 45.22586620000001,
    "lng": 13.6015772,
    "name_en": "INA",
    "description_en": null
  },
  {
    "id": 2925,
    "wind2horizon_id": null,
    "lat": 45.1482682,
    "lng": 13.6042558,
    "name_en": "Crodux",
    "description_en": null
  },
  {
    "id": 2926,
    "wind2horizon_id": null,
    "lat": 45.2245414,
    "lng": 13.5962814,
    "name_en": "INA",
    "description_en": null
  },
  {
    "id": 2927,
    "wind2horizon_id": null,
    "lat": 45.21885779999999,
    "lng": 13.6488741,
    "name_en": "Petrol",
    "description_en": null
  },
  {
    "id": 2928,
    "wind2horizon_id": null,
    "lat": 45.22463130000001,
    "lng": 13.5950942,
    "name_en": "Ina",
    "description_en": null
  },
  {
    "id": 2929,
    "wind2horizon_id": null,
    "lat": 45.2070655,
    "lng": 13.6033321,
    "name_en": "Aldo Commerce Ltd. Porec",
    "description_en": null
  },
  {
    "id": 2930,
    "wind2horizon_id": null,
    "lat": 45.22103329999999,
    "lng": 13.6382312,
    "name_en": "Gas Oil",
    "description_en": null
  },
  {
    "id": 2931,
    "wind2horizon_id": null,
    "lat": 45.0906883,
    "lng": 13.6588764,
    "name_en": "INA",
    "description_en": null
  },
  {
    "id": 2932,
    "wind2horizon_id": null,
    "lat": 45.0799225,
    "lng": 13.6534463,
    "name_en": "Ina",
    "description_en": null
  },
  {
    "id": 2933,
    "wind2horizon_id": null,
    "lat": 45.07953759999999,
    "lng": 13.662411,
    "name_en": "Petrol",
    "description_en": null
  },
  {
    "id": 2934,
    "wind2horizon_id": null,
    "lat": 45.0844545,
    "lng": 13.6350083,
    "name_en": "INA",
    "description_en": null
  },
  {
    "id": 2936,
    "wind2horizon_id": null,
    "lat": 45.0922445,
    "lng": 13.6695332,
    "name_en": "Shell BS",
    "description_en": null
  },
  {
    "id": 2937,
    "wind2horizon_id": null,
    "lat": 44.83856309999999,
    "lng": 13.8432696,
    "name_en": "FLASH ENERGY",
    "description_en": null
  },
  {
    "id": 2946,
    "wind2horizon_id": null,
    "lat": 44.87669570000001,
    "lng": 13.8533948,
    "name_en": "INA",
    "description_en": null
  },
  {
    "id": 2948,
    "wind2horizon_id": null,
    "lat": 44.8926855,
    "lng": 13.8462941,
    "name_en": "INA",
    "description_en": null
  },
  {
    "id": 2949,
    "wind2horizon_id": null,
    "lat": 44.8792396,
    "lng": 13.8664444,
    "name_en": "Crodux",
    "description_en": null
  },
  {
    "id": 2951,
    "wind2horizon_id": null,
    "lat": 44.925644,
    "lng": 13.803978,
    "name_en": "INA",
    "description_en": null
  },
  {
    "id": 2953,
    "wind2horizon_id": null,
    "lat": 44.8734465,
    "lng": 13.8472214,
    "name_en": "INA",
    "description_en": null
  },
  {
    "id": 2957,
    "wind2horizon_id": null,
    "lat": 44.8573716,
    "lng": 13.877445,
    "name_en": "Tankstella",
    "description_en": null
  },
  {
    "id": 2962,
    "wind2horizon_id": null,
    "lat": 45.0301159,
    "lng": 14.5875163,
    "name_en": "INA",
    "description_en": null
  },
  {
    "id": 2964,
    "wind2horizon_id": null,
    "lat": 44.9585424,
    "lng": 14.4101666,
    "name_en": "INA",
    "description_en": null
  },
  {
    "id": 2966,
    "wind2horizon_id": null,
    "lat": 44.9509484,
    "lng": 14.4146147,
    "name_en": "INA",
    "description_en": null
  },
  {
    "id": 2967,
    "wind2horizon_id": null,
    "lat": 45.029034,
    "lng": 14.497961,
    "name_en": "Gas station Valbiska",
    "description_en": null
  },
  {
    "id": 2969,
    "wind2horizon_id": null,
    "lat": 44.5341392,
    "lng": 14.4722168,
    "name_en": "INA",
    "description_en": null
  },
  {
    "id": 2970,
    "wind2horizon_id": null,
    "lat": 44.5453817,
    "lng": 14.4554674,
    "name_en": "Adria Oil BP Mali Lošinj",
    "description_en": null
  },
  {
    "id": 2971,
    "wind2horizon_id": null,
    "lat": 44.5338295,
    "lng": 14.4633172,
    "name_en": "INA",
    "description_en": null
  },
  {
    "id": 2972,
    "wind2horizon_id": null,
    "lat": 45.1112391,
    "lng": 14.5460215,
    "name_en": "Adria Petrol",
    "description_en": null
  },
  {
    "id": 2973,
    "wind2horizon_id": null,
    "lat": 45.123068,
    "lng": 14.527419,
    "name_en": "Trgovina Krk d.d. Petrol station",
    "description_en": null
  },
  {
    "id": 2975,
    "wind2horizon_id": null,
    "lat": 45.0391533,
    "lng": 14.5694439,
    "name_en": "In'sol",
    "description_en": null
  },
  {
    "id": 2976,
    "wind2horizon_id": null,
    "lat": 45.1254476,
    "lng": 14.7927579,
    "name_en": "INA",
    "description_en": null
  },
  {
    "id": 2977,
    "wind2horizon_id": null,
    "lat": 45.125895,
    "lng": 14.788212,
    "name_en": "INA",
    "description_en": null
  },
  {
    "id": 2978,
    "wind2horizon_id": null,
    "lat": 44.7578594,
    "lng": 14.7633297,
    "name_en": "INA",
    "description_en": null
  },
  {
    "id": 2979,
    "wind2horizon_id": null,
    "lat": 44.74775,
    "lng": 14.7891886,
    "name_en": "INA",
    "description_en": null
  },
  {
    "id": 2980,
    "wind2horizon_id": null,
    "lat": 44.823513,
    "lng": 14.715167,
    "name_en": "Perductor d.o.o",
    "description_en": null
  },
  {
    "id": 2981,
    "wind2horizon_id": null,
    "lat": 44.7121691,
    "lng": 14.9193095,
    "name_en": "INA",
    "description_en": null
  },
  {
    "id": 2982,
    "wind2horizon_id": null,
    "lat": 44.7580686,
    "lng": 14.7625887,
    "name_en": "Tankstelle RAB Hafen",
    "description_en": null
  },
  {
    "id": 2983,
    "wind2horizon_id": null,
    "lat": 44.441341,
    "lng": 15.061923,
    "name_en": "INA",
    "description_en": null
  },
  {
    "id": 2984,
    "wind2horizon_id": null,
    "lat": 44.54743010000001,
    "lng": 14.8938699,
    "name_en": "INA",
    "description_en": null
  },
  {
    "id": 2985,
    "wind2horizon_id": null,
    "lat": 44.5298226,
    "lng": 15.069826,
    "name_en": "INA",
    "description_en": null
  },
  {
    "id": 2986,
    "wind2horizon_id": null,
    "lat": 44.5344975,
    "lng": 14.9130783,
    "name_en": "Tifon",
    "description_en": null
  },
  {
    "id": 2987,
    "wind2horizon_id": null,
    "lat": 44.54933459999999,
    "lng": 14.9021366,
    "name_en": "Lukoil",
    "description_en": null
  },
  {
    "id": 2989,
    "wind2horizon_id": null,
    "lat": 44.4376284,
    "lng": 15.0647818,
    "name_en": "Rijeka Trans",
    "description_en": null
  },
  {
    "id": 2990,
    "wind2horizon_id": null,
    "lat": 44.07645309999999,
    "lng": 15.193731,
    "name_en": "INA",
    "description_en": null
  },
  {
    "id": 2991,
    "wind2horizon_id": null,
    "lat": 44.13192900000001,
    "lng": 15.2115527,
    "name_en": "INA",
    "description_en": null
  },
  {
    "id": 2992,
    "wind2horizon_id": null,
    "lat": 44.1052121,
    "lng": 15.2600577,
    "name_en": "INA",
    "description_en": null
  },
  {
    "id": 2993,
    "wind2horizon_id": null,
    "lat": 44.1178978,
    "lng": 15.228701,
    "name_en": "INA",
    "description_en": null
  },
  {
    "id": 2994,
    "wind2horizon_id": null,
    "lat": 44.1155374,
    "lng": 15.259644,
    "name_en": "INA",
    "description_en": null
  },
  {
    "id": 2996,
    "wind2horizon_id": null,
    "lat": 44.1178619,
    "lng": 15.2286932,
    "name_en": "INA",
    "description_en": null
  },
  {
    "id": 2997,
    "wind2horizon_id": null,
    "lat": 44.11058389999999,
    "lng": 15.2340203,
    "name_en": "INA",
    "description_en": null
  },
  {
    "id": 2998,
    "wind2horizon_id": null,
    "lat": 44.0948569,
    "lng": 15.2590458,
    "name_en": "Petrol",
    "description_en": null
  },
  {
    "id": 2999,
    "wind2horizon_id": null,
    "lat": 44.0527655,
    "lng": 15.2974138,
    "name_en": "Asmira Marine Fuel Station",
    "description_en": null
  },
  {
    "id": 3000,
    "wind2horizon_id": null,
    "lat": 44.1375292,
    "lng": 15.2402687,
    "name_en": "Adria Oil BP Zadar",
    "description_en": null
  },
  {
    "id": 3001,
    "wind2horizon_id": null,
    "lat": 44.0527413,
    "lng": 15.297396,
    "name_en": "Petrol Station",
    "description_en": null
  },
  {
    "id": 3002,
    "wind2horizon_id": null,
    "lat": 44.0500828,
    "lng": 15.3121901,
    "name_en": "Tri Bartola d.o.o.",
    "description_en": null
  },
  {
    "id": 3003,
    "wind2horizon_id": null,
    "lat": 44.2269856,
    "lng": 15.1790813,
    "name_en": "Petrol",
    "description_en": null
  },
  {
    "id": 3005,
    "wind2horizon_id": null,
    "lat": 44.1395167,
    "lng": 15.3104242,
    "name_en": "Petrol Murvica West",
    "description_en": null
  },
  {
    "id": 3006,
    "wind2horizon_id": null,
    "lat": 44.1390771,
    "lng": 15.3107892,
    "name_en": "Petrol",
    "description_en": null
  },
  {
    "id": 3009,
    "wind2horizon_id": null,
    "lat": 44.10154199999999,
    "lng": 15.2536782,
    "name_en": "Tri Bartola",
    "description_en": null
  },
  {
    "id": 3013,
    "wind2horizon_id": null,
    "lat": 45.2768923,
    "lng": 14.5708358,
    "name_en": "INA",
    "description_en": null
  },
  {
    "id": 3015,
    "wind2horizon_id": null,
    "lat": 45.328088,
    "lng": 14.4479858,
    "name_en": "INA",
    "description_en": null
  },
  {
    "id": 3017,
    "wind2horizon_id": null,
    "lat": 45.3862753,
    "lng": 14.313788,
    "name_en": "INA",
    "description_en": null
  },
  {
    "id": 3019,
    "wind2horizon_id": null,
    "lat": 45.4420942,
    "lng": 14.2751499,
    "name_en": "Petrol Crodux Brgud East",
    "description_en": null
  },
  {
    "id": 3021,
    "wind2horizon_id": null,
    "lat": 45.3484305,
    "lng": 14.4199107,
    "name_en": "INA",
    "description_en": null
  },
  {
    "id": 3022,
    "wind2horizon_id": null,
    "lat": 45.33434889999999,
    "lng": 14.4217676,
    "name_en": "INA",
    "description_en": null
  },
  {
    "id": 3023,
    "wind2horizon_id": null,
    "lat": 45.2719051,
    "lng": 14.5768156,
    "name_en": "Petrol",
    "description_en": null
  },
  {
    "id": 3024,
    "wind2horizon_id": null,
    "lat": 45.3417116,
    "lng": 14.371831,
    "name_en": "INA",
    "description_en": null
  },
  {
    "id": 3025,
    "wind2horizon_id": null,
    "lat": 45.332861,
    "lng": 14.3026401,
    "name_en": "Ina",
    "description_en": null
  },
  {
    "id": 3026,
    "wind2horizon_id": null,
    "lat": 45.3608874,
    "lng": 14.3296183,
    "name_en": "Petrol",
    "description_en": null
  },
  {
    "id": 3027,
    "wind2horizon_id": null,
    "lat": 45.3487792,
    "lng": 14.4949469,
    "name_en": "Petrol",
    "description_en": null
  },
  {
    "id": 3028,
    "wind2horizon_id": null,
    "lat": 45.4431236,
    "lng": 14.2734547,
    "name_en": "Crodux Brgud Zapad",
    "description_en": null
  },
  {
    "id": 3029,
    "wind2horizon_id": null,
    "lat": 45.3730757,
    "lng": 14.3390351,
    "name_en": "Adria Oil BP Spinčići",
    "description_en": null
  },
  {
    "id": 3030,
    "wind2horizon_id": null,
    "lat": 45.3742499,
    "lng": 14.3867563,
    "name_en": "Adria Oil BP Viškovo",
    "description_en": null
  },
  {
    "id": 3031,
    "wind2horizon_id": null,
    "lat": 45.2566899,
    "lng": 14.5810568,
    "name_en": "Tifon",
    "description_en": null
  },
  {
    "id": 3032,
    "wind2horizon_id": null,
    "lat": 45.33541210000001,
    "lng": 14.3110078,
    "name_en": "Ina",
    "description_en": null
  },
  {
    "id": 3033,
    "wind2horizon_id": null,
    "lat": 45.3553562,
    "lng": 14.3534385,
    "name_en": "Crodux - Vrata Jadrana North",
    "description_en": null
  },
  {
    "id": 3034,
    "wind2horizon_id": null,
    "lat": 45.296351,
    "lng": 14.2757542,
    "name_en": "INA",
    "description_en": null
  },
  {
    "id": 3035,
    "wind2horizon_id": null,
    "lat": 45.3722451,
    "lng": 14.3577942,
    "name_en": "Tifon",
    "description_en": null
  },
  {
    "id": 3036,
    "wind2horizon_id": null,
    "lat": 45.3551753,
    "lng": 14.3496619,
    "name_en": "Crodux - Vrata Jadrana South",
    "description_en": null
  },
  {
    "id": 3037,
    "wind2horizon_id": null,
    "lat": 45.2173052,
    "lng": 14.5641424,
    "name_en": "Gas Station GPP Mikic",
    "description_en": null
  },
  {
    "id": 3038,
    "wind2horizon_id": null,
    "lat": 45.36312789999999,
    "lng": 14.4910799,
    "name_en": "Petrol",
    "description_en": null
  },
  {
    "id": 3039,
    "wind2horizon_id": null,
    "lat": 45.358184,
    "lng": 14.3271482,
    "name_en": "Adria Oil BP Opatija",
    "description_en": null
  },
  {
    "id": 3040,
    "wind2horizon_id": null,
    "lat": 45.323124,
    "lng": 14.4677187,
    "name_en": "INA",
    "description_en": null
  },
  {
    "id": 3041,
    "wind2horizon_id": null,
    "lat": 45.2563509,
    "lng": 14.5813226,
    "name_en": "Tifon",
    "description_en": null
  },
  {
    "id": 3043,
    "wind2horizon_id": null,
    "lat": 45.3342598,
    "lng": 14.4160594,
    "name_en": "INA",
    "description_en": null
  },
  {
    "id": 3044,
    "wind2horizon_id": null,
    "lat": 45.285028,
    "lng": 14.534661,
    "name_en": "INA",
    "description_en": null
  },
  {
    "id": 3045,
    "wind2horizon_id": null,
    "lat": 45.3254457,
    "lng": 14.477691,
    "name_en": "Ina",
    "description_en": null
  },
  {
    "id": 3046,
    "wind2horizon_id": null,
    "lat": 45.3542047,
    "lng": 14.3656205,
    "name_en": "Adria Oil BP Martinkovac",
    "description_en": null
  },
  {
    "id": 3047,
    "wind2horizon_id": null,
    "lat": 45.3295162,
    "lng": 14.5092148,
    "name_en": "Adria Oil BP Kukuljanovo",
    "description_en": null
  },
  {
    "id": 3049,
    "wind2horizon_id": null,
    "lat": 45.3436969,
    "lng": 14.4088104,
    "name_en": "Crodux",
    "description_en": null
  },
  {
    "id": 3051,
    "wind2horizon_id": null,
    "lat": 45.335311,
    "lng": 14.4182236,
    "name_en": "CRODUX Rijeka, Mlaka - grupa Petrol",
    "description_en": null
  },
  {
    "id": 3052,
    "wind2horizon_id": null,
    "lat": 45.3098795,
    "lng": 14.4880617,
    "name_en": "INA",
    "description_en": null
  },
  {
    "id": 3053,
    "wind2horizon_id": null,
    "lat": 45.3358648,
    "lng": 14.51435,
    "name_en": "Rijeka Trans Pumpa",
    "description_en": null
  },
  {
    "id": 3054,
    "wind2horizon_id": null,
    "lat": 45.3825235,
    "lng": 14.3834932,
    "name_en": "Petrol, PM Rijeka - Viškovo",
    "description_en": null
  },
  {
    "id": 3055,
    "wind2horizon_id": null,
    "lat": 45.31403,
    "lng": 14.24979,
    "name_en": "INA Kvarner",
    "description_en": null
  },
  {
    "id": 3056,
    "wind2horizon_id": null,
    "lat": 45.340117,
    "lng": 14.4130269,
    "name_en": "Ina",
    "description_en": null
  },
  {
    "id": 3058,
    "wind2horizon_id": null,
    "lat": 44.1922976,
    "lng": 15.4222057,
    "name_en": "INA",
    "description_en": null
  },
  {
    "id": 3061,
    "wind2horizon_id": null,
    "lat": 44.1915844,
    "lng": 15.42073,
    "name_en": "INA",
    "description_en": null
  },
  {
    "id": 3079,
    "wind2horizon_id": null,
    "lat": 44.0626801,
    "lng": 15.5287001,
    "name_en": "Crodux",
    "description_en": null
  },
  {
    "id": 3080,
    "wind2horizon_id": null,
    "lat": 44.0617019,
    "lng": 15.531974,
    "name_en": "Petrol",
    "description_en": null
  },
  {
    "id": 3081,
    "wind2horizon_id": null,
    "lat": 43.9439997,
    "lng": 15.455519,
    "name_en": "INA",
    "description_en": null
  },
  {
    "id": 3085,
    "wind2horizon_id": null,
    "lat": 44.00169289999999,
    "lng": 15.5019253,
    "name_en": "Šimun Oil",
    "description_en": null
  },
  {
    "id": 3086,
    "wind2horizon_id": null,
    "lat": 43.9403517,
    "lng": 15.4478817,
    "name_en": "INA",
    "description_en": null
  },
  {
    "id": 3087,
    "wind2horizon_id": null,
    "lat": 43.824503,
    "lng": 15.593997,
    "name_en": "INA",
    "description_en": null
  },
  {
    "id": 3088,
    "wind2horizon_id": null,
    "lat": 43.9387408,
    "lng": 15.4399216,
    "name_en": "INA",
    "description_en": null
  },
  {
    "id": 3089,
    "wind2horizon_id": null,
    "lat": 43.8251812,
    "lng": 15.5928293,
    "name_en": "FLASH ENERGY",
    "description_en": null
  },
  {
    "id": 3090,
    "wind2horizon_id": null,
    "lat": 43.9132369,
    "lng": 15.5121818,
    "name_en": "Petrol - Pakoštane",
    "description_en": null
  },
  {
    "id": 3091,
    "wind2horizon_id": null,
    "lat": 43.824786,
    "lng": 15.5931462,
    "name_en": "Bootstankstelle",
    "description_en": null
  },
  {
    "id": 3092,
    "wind2horizon_id": null,
    "lat": 43.9387633,
    "lng": 15.4397215,
    "name_en": "BOAT Gas Station",
    "description_en": null
  },
  {
    "id": 3093,
    "wind2horizon_id": null,
    "lat": 43.9497,
    "lng": 15.1442885,
    "name_en": "B.P. Zaglav",
    "description_en": null
  },
  {
    "id": 3094,
    "wind2horizon_id": null,
    "lat": 43.8258793,
    "lng": 15.6557879,
    "name_en": "PI-NA",
    "description_en": null
  },
  {
    "id": 3095,
    "wind2horizon_id": null,
    "lat": 43.8983423,
    "lng": 15.7073705,
    "name_en": "INA",
    "description_en": null
  },
  {
    "id": 3096,
    "wind2horizon_id": null,
    "lat": 43.78433099999999,
    "lng": 15.643335,
    "name_en": "INA",
    "description_en": null
  },
  {
    "id": 3097,
    "wind2horizon_id": null,
    "lat": 43.85603769999999,
    "lng": 15.845014,
    "name_en": "INA",
    "description_en": null
  },
  {
    "id": 3098,
    "wind2horizon_id": null,
    "lat": 43.7108974,
    "lng": 15.9123771,
    "name_en": "INA",
    "description_en": null
  },
  {
    "id": 3099,
    "wind2horizon_id": null,
    "lat": 43.7329827,
    "lng": 15.8915172,
    "name_en": "INA",
    "description_en": null
  },
  {
    "id": 3100,
    "wind2horizon_id": null,
    "lat": 43.8563299,
    "lng": 15.8469812,
    "name_en": "INA",
    "description_en": null
  },
  {
    "id": 3101,
    "wind2horizon_id": null,
    "lat": 43.7611497,
    "lng": 15.7839397,
    "name_en": "INA",
    "description_en": null
  },
  {
    "id": 3103,
    "wind2horizon_id": null,
    "lat": 43.71851239999999,
    "lng": 15.8906722,
    "name_en": "Lukoil",
    "description_en": null
  },
  {
    "id": 3104,
    "wind2horizon_id": null,
    "lat": 43.7166944,
    "lng": 15.9120423,
    "name_en": "Petrol",
    "description_en": null
  },
  {
    "id": 3105,
    "wind2horizon_id": null,
    "lat": 43.7603883,
    "lng": 15.8645228,
    "name_en": "INA",
    "description_en": null
  },
  {
    "id": 3106,
    "wind2horizon_id": null,
    "lat": 43.7572675,
    "lng": 15.7805702,
    "name_en": "INA",
    "description_en": null
  },
  {
    "id": 3107,
    "wind2horizon_id": null,
    "lat": 43.7599347,
    "lng": 15.8646706,
    "name_en": "Adria Oil d.o.o. BP ŠIBENIK",
    "description_en": null
  },
  {
    "id": 3108,
    "wind2horizon_id": null,
    "lat": 43.7460951,
    "lng": 15.8906123,
    "name_en": "Petrol",
    "description_en": null
  },
  {
    "id": 3109,
    "wind2horizon_id": null,
    "lat": 43.6907006,
    "lng": 16.0400099,
    "name_en": "Lukoil Vrpolje Primorsko - Sjever",
    "description_en": null
  },
  {
    "id": 3111,
    "wind2horizon_id": null,
    "lat": 43.5328978,
    "lng": 15.9623452,
    "name_en": "Gas Station for Boats",
    "description_en": null
  },
  {
    "id": 3112,
    "wind2horizon_id": null,
    "lat": 43.5882193,
    "lng": 15.927586,
    "name_en": "INA",
    "description_en": null
  },
  {
    "id": 3113,
    "wind2horizon_id": null,
    "lat": 43.569769,
    "lng": 15.942632,
    "name_en": "Petrol",
    "description_en": null
  },
  {
    "id": 3114,
    "wind2horizon_id": null,
    "lat": 43.5587457,
    "lng": 16.3562954,
    "name_en": "INA",
    "description_en": null
  },
  {
    "id": 3115,
    "wind2horizon_id": null,
    "lat": 43.5217474,
    "lng": 16.2633588,
    "name_en": "INA",
    "description_en": null
  },
  {
    "id": 3116,
    "wind2horizon_id": null,
    "lat": 43.5282556,
    "lng": 16.2578956,
    "name_en": "Benzin PERIĆ",
    "description_en": null
  },
  {
    "id": 3117,
    "wind2horizon_id": null,
    "lat": 43.535082,
    "lng": 16.2808733,
    "name_en": "Energy M",
    "description_en": null
  },
  {
    "id": 3118,
    "wind2horizon_id": null,
    "lat": 43.5140805,
    "lng": 16.4272896,
    "name_en": "INA",
    "description_en": null
  },
  {
    "id": 3119,
    "wind2horizon_id": null,
    "lat": 43.5131637,
    "lng": 16.24629,
    "name_en": "INA",
    "description_en": null
  },
  {
    "id": 3120,
    "wind2horizon_id": null,
    "lat": 43.396255,
    "lng": 16.3001788,
    "name_en": "Benzinska postaja INA",
    "description_en": null
  },
  {
    "id": 3121,
    "wind2horizon_id": null,
    "lat": 43.5158052,
    "lng": 16.2360123,
    "name_en": "Benzinska postaja, Tankstelle, Yachts Tankstelle, Boot Tankstelle, Boat Gas station",
    "description_en": null
  },
  {
    "id": 3122,
    "wind2horizon_id": null,
    "lat": 43.5464394,
    "lng": 16.2964284,
    "name_en": "Crodux",
    "description_en": null
  },
  {
    "id": 3123,
    "wind2horizon_id": null,
    "lat": 43.5581606,
    "lng": 16.3564199,
    "name_en": "INA",
    "description_en": null
  },
  {
    "id": 3124,
    "wind2horizon_id": null,
    "lat": 43.5053869,
    "lng": 16.4315186,
    "name_en": "INA",
    "description_en": null
  },
  {
    "id": 3125,
    "wind2horizon_id": null,
    "lat": 43.5572546,
    "lng": 16.3344145,
    "name_en": "LISANA KOMERC d.o.o Brešković gas",
    "description_en": null
  },
  {
    "id": 3126,
    "wind2horizon_id": null,
    "lat": 43.5630183,
    "lng": 16.3157453,
    "name_en": "Lisana Komerc d.o.o.",
    "description_en": null
  },
  {
    "id": 3127,
    "wind2horizon_id": null,
    "lat": 43.58769100000001,
    "lng": 16.4600749,
    "name_en": "INA",
    "description_en": null
  },
  {
    "id": 3128,
    "wind2horizon_id": null,
    "lat": 43.58621309999999,
    "lng": 16.4573767,
    "name_en": "INA",
    "description_en": null
  },
  {
    "id": 3129,
    "wind2horizon_id": null,
    "lat": 43.505044,
    "lng": 16.4528656,
    "name_en": "INA",
    "description_en": null
  },
  {
    "id": 3130,
    "wind2horizon_id": null,
    "lat": 43.510766,
    "lng": 16.488274,
    "name_en": "INA",
    "description_en": null
  },
  {
    "id": 3131,
    "wind2horizon_id": null,
    "lat": 43.52326499999999,
    "lng": 16.4870787,
    "name_en": "INA",
    "description_en": null
  },
  {
    "id": 3132,
    "wind2horizon_id": null,
    "lat": 43.5769267,
    "lng": 16.5450791,
    "name_en": "INA",
    "description_en": null
  },
  {
    "id": 3133,
    "wind2horizon_id": null,
    "lat": 43.5229254,
    "lng": 16.4854295,
    "name_en": "Tifon",
    "description_en": null
  },
  {
    "id": 3135,
    "wind2horizon_id": null,
    "lat": 43.54821339999999,
    "lng": 16.4427254,
    "name_en": "Benzin Perić",
    "description_en": null
  },
  {
    "id": 3136,
    "wind2horizon_id": null,
    "lat": 43.5829786,
    "lng": 16.5604719,
    "name_en": "Petrol",
    "description_en": null
  },
  {
    "id": 3137,
    "wind2horizon_id": null,
    "lat": 43.5323538,
    "lng": 16.4807082,
    "name_en": "Ina",
    "description_en": null
  },
  {
    "id": 3138,
    "wind2horizon_id": null,
    "lat": 43.5212697,
    "lng": 16.4546208,
    "name_en": "INA",
    "description_en": null
  },
  {
    "id": 3139,
    "wind2horizon_id": null,
    "lat": 43.5197616,
    "lng": 16.4547568,
    "name_en": "INA",
    "description_en": null
  },
  {
    "id": 3140,
    "wind2horizon_id": null,
    "lat": 43.3791304,
    "lng": 16.5577257,
    "name_en": "INA",
    "description_en": null
  },
  {
    "id": 3141,
    "wind2horizon_id": null,
    "lat": 43.5286646,
    "lng": 16.5069392,
    "name_en": "Lukoil",
    "description_en": null
  },
  {
    "id": 3142,
    "wind2horizon_id": null,
    "lat": 43.5203339,
    "lng": 16.454848,
    "name_en": "INA",
    "description_en": null
  },
  {
    "id": 3143,
    "wind2horizon_id": null,
    "lat": 43.532153,
    "lng": 16.4868475,
    "name_en": "INA",
    "description_en": null
  },
  {
    "id": 3144,
    "wind2horizon_id": null,
    "lat": 43.5107268,
    "lng": 16.488672,
    "name_en": "Ina Plin",
    "description_en": null
  },
  {
    "id": 3146,
    "wind2horizon_id": null,
    "lat": 43.547556,
    "lng": 16.410453,
    "name_en": "Petrol",
    "description_en": null
  },
  {
    "id": 3148,
    "wind2horizon_id": null,
    "lat": 43.4391784,
    "lng": 16.6434459,
    "name_en": "Eurotank",
    "description_en": null
  },
  {
    "id": 3150,
    "wind2horizon_id": null,
    "lat": 43.5259343,
    "lng": 16.4752188,
    "name_en": "Petrol",
    "description_en": null
  },
  {
    "id": 3151,
    "wind2horizon_id": null,
    "lat": 43.4429281,
    "lng": 16.6835496,
    "name_en": "INA",
    "description_en": null
  },
  {
    "id": 3152,
    "wind2horizon_id": null,
    "lat": 43.4428858,
    "lng": 16.6835593,
    "name_en": "LPG",
    "description_en": null
  },
  {
    "id": 3153,
    "wind2horizon_id": null,
    "lat": 43.3270324,
    "lng": 16.4429254,
    "name_en": "INA",
    "description_en": null
  },
  {
    "id": 3154,
    "wind2horizon_id": null,
    "lat": 43.2604484,
    "lng": 16.6544594,
    "name_en": "INA",
    "description_en": null
  },
  {
    "id": 3155,
    "wind2horizon_id": null,
    "lat": 43.4392091,
    "lng": 16.6434174,
    "name_en": "MOŠUNJ D.O.O.",
    "description_en": null
  },
  {
    "id": 3157,
    "wind2horizon_id": null,
    "lat": 43.1640546,
    "lng": 16.679275,
    "name_en": "INA",
    "description_en": null
  },
  {
    "id": 3158,
    "wind2horizon_id": null,
    "lat": 43.1794804,
    "lng": 16.6741382,
    "name_en": "INA",
    "description_en": null
  },
  {
    "id": 3159,
    "wind2horizon_id": null,
    "lat": 43.1662697,
    "lng": 16.4451193,
    "name_en": "INA",
    "description_en": null
  },
  {
    "id": 3160,
    "wind2horizon_id": null,
    "lat": 42.9533613,
    "lng": 17.1267431,
    "name_en": "Eurotank",
    "description_en": null
  },
  {
    "id": 3161,
    "wind2horizon_id": null,
    "lat": 42.95439289999999,
    "lng": 17.1483433,
    "name_en": "Gasolinera para barcos (pantalán)",
    "description_en": null
  },
  {
    "id": 3162,
    "wind2horizon_id": null,
    "lat": 42.95396,
    "lng": 17.1482787,
    "name_en": "INA",
    "description_en": null
  },
  {
    "id": 3163,
    "wind2horizon_id": null,
    "lat": 42.9837841,
    "lng": 17.2005903,
    "name_en": "\"BP Orebić\" Ravlić ltd petrol station",
    "description_en": null
  },
  {
    "id": 3164,
    "wind2horizon_id": null,
    "lat": 42.9616578,
    "lng": 16.7150503,
    "name_en": "INA",
    "description_en": null
  },
  {
    "id": 3165,
    "wind2horizon_id": null,
    "lat": 42.9201066,
    "lng": 16.878429,
    "name_en": "REPAK Gasoline Station",
    "description_en": null
  },
  {
    "id": 3166,
    "wind2horizon_id": null,
    "lat": 42.941604,
    "lng": 17.335385,
    "name_en": "INA",
    "description_en": null
  },
  {
    "id": 3167,
    "wind2horizon_id": null,
    "lat": 43.10540580000001,
    "lng": 17.3481173,
    "name_en": "INA",
    "description_en": null
  },
  {
    "id": 3168,
    "wind2horizon_id": null,
    "lat": 42.7385451,
    "lng": 17.6216066,
    "name_en": "Komunalno Mljet d.o.o. BP SOBRA",
    "description_en": null
  },
  {
    "id": 3169,
    "wind2horizon_id": null,
    "lat": 42.8335491,
    "lng": 17.7476001,
    "name_en": "INA",
    "description_en": null
  },
  {
    "id": 3170,
    "wind2horizon_id": null,
    "lat": 42.6920169,
    "lng": 18.0248201,
    "name_en": "Crodux",
    "description_en": null
  },
  {
    "id": 3171,
    "wind2horizon_id": null,
    "lat": 42.7986969,
    "lng": 17.850975,
    "name_en": "Tifon",
    "description_en": null
  },
  {
    "id": 3172,
    "wind2horizon_id": null,
    "lat": 42.658674,
    "lng": 18.079619,
    "name_en": "INA",
    "description_en": null
  },
  {
    "id": 3173,
    "wind2horizon_id": null,
    "lat": 42.67099160000001,
    "lng": 18.1257295,
    "name_en": "INA",
    "description_en": null
  },
  {
    "id": 3174,
    "wind2horizon_id": null,
    "lat": 42.6683631,
    "lng": 18.1297349,
    "name_en": "INA",
    "description_en": null
  },
  {
    "id": 3175,
    "wind2horizon_id": null,
    "lat": 42.6685055,
    "lng": 18.1357934,
    "name_en": "Ina",
    "description_en": null
  },
  {
    "id": 3279,
    "wind2horizon_id": null,
    "lat": 45.3327719,
    "lng": 14.4276069,
    "name_en": "Oftalmologia",
    "description_en": null
  },
  {
    "id": 3280,
    "wind2horizon_id": null,
    "lat": 45.3587943,
    "lng": 14.3075274,
    "name_en": "Branca dentista",
    "description_en": null
  },
  {
    "id": 3281,
    "wind2horizon_id": null,
    "lat": 45.3253081,
    "lng": 14.4613327,
    "name_en": "DENTAL FUSION",
    "description_en": null
  },
  {
    "id": 3282,
    "wind2horizon_id": null,
    "lat": 44.7794805,
    "lng": 14.7212629,
    "name_en": "Psychiatric hospital Rab",
    "description_en": null
  },
  {
    "id": 3283,
    "wind2horizon_id": null,
    "lat": 44.7639066,
    "lng": 14.757807,
    "name_en": "Rab Health Centre",
    "description_en": null
  },
  {
    "id": 3284,
    "wind2horizon_id": null,
    "lat": 44.8250865,
    "lng": 14.7395511,
    "name_en": "Dom zdravlja Rab",
    "description_en": null
  },
  {
    "id": 3285,
    "wind2horizon_id": null,
    "lat": 44.5464655,
    "lng": 14.8917786,
    "name_en": "Ärztehaus Krankenhaus",
    "description_en": null
  },
  {
    "id": 3287,
    "wind2horizon_id": null,
    "lat": 44.3496458,
    "lng": 15.1143053,
    "name_en": "Dom zdravlja Povljana",
    "description_en": null
  },
  {
    "id": 3288,
    "wind2horizon_id": null,
    "lat": 44.107354,
    "lng": 15.234584,
    "name_en": "Zadar General Hospital MS",
    "description_en": null
  },
  {
    "id": 3290,
    "wind2horizon_id": null,
    "lat": 44.1141791,
    "lng": 15.2334108,
    "name_en": "SUNCE VOLUNTARY HEALTH INSURANCE",
    "description_en": null
  },
  {
    "id": 3291,
    "wind2horizon_id": null,
    "lat": 44.1127729,
    "lng": 15.0999986,
    "name_en": "Psychiatric hospital Ugljan",
    "description_en": null
  },
  {
    "id": 3292,
    "wind2horizon_id": null,
    "lat": 44.10721299999999,
    "lng": 15.2347507,
    "name_en": "Odjel za radiologiju",
    "description_en": null
  },
  {
    "id": 3294,
    "wind2horizon_id": null,
    "lat": 44.112714,
    "lng": 15.2280759,
    "name_en": "Health Center of Zadar County",
    "description_en": null
  },
  {
    "id": 3206,
    "wind2horizon_id": null,
    "lat": 45.6490638,
    "lng": 13.783164,
    "name_en": "ASUGI Medicina del Lavoro",
    "description_en": null
  },
  {
    "id": 3208,
    "wind2horizon_id": null,
    "lat": 45.6499278,
    "lng": 13.7731104,
    "name_en": "Defibrillatore DAE",
    "description_en": null
  },
  {
    "id": 3210,
    "wind2horizon_id": null,
    "lat": 45.6551087,
    "lng": 13.7765455,
    "name_en": "Nutripuntura",
    "description_en": null
  },
  {
    "id": 3211,
    "wind2horizon_id": null,
    "lat": 45.0994945,
    "lng": 13.633883,
    "name_en": "Bolnica",
    "description_en": null
  },
  {
    "id": 3212,
    "wind2horizon_id": null,
    "lat": 45.0984609,
    "lng": 13.635256,
    "name_en": "BOLNICA O I R prim.dr. MARTIN HORVAT",
    "description_en": null
  },
  {
    "id": 3295,
    "wind2horizon_id": null,
    "lat": 44.107392,
    "lng": 15.2350454,
    "name_en": "Odjel za dermatologiju i venerologiju",
    "description_en": null
  },
  {
    "id": 3296,
    "wind2horizon_id": null,
    "lat": 44.1082771,
    "lng": 15.2332706,
    "name_en": "Odjel za transfuziju",
    "description_en": null
  },
  {
    "id": 3297,
    "wind2horizon_id": null,
    "lat": 44.0463749,
    "lng": 15.3129912,
    "name_en": "Ambulanta Sukošan doc.dr.sc. Jasna Vučak",
    "description_en": null
  },
  {
    "id": 3298,
    "wind2horizon_id": null,
    "lat": 44.10796939999999,
    "lng": 15.2335806,
    "name_en": "Odjel za psihijatriju-4. kat",
    "description_en": null
  },
  {
    "id": 3299,
    "wind2horizon_id": null,
    "lat": 44.107392,
    "lng": 15.2350454,
    "name_en": "Odjel za infektologiju",
    "description_en": null
  },
  {
    "id": 3478,
    "wind2horizon_id": null,
    "lat": 43.2982861,
    "lng": 17.0177417,
    "name_en": "HepiCentar",
    "description_en": null
  },
  {
    "id": 3300,
    "wind2horizon_id": null,
    "lat": 44.10710520000001,
    "lng": 15.2347468,
    "name_en": "Odjel za kirurgiju-odsjek za torakalnu kirurgiju",
    "description_en": null
  },
  {
    "id": 3301,
    "wind2horizon_id": null,
    "lat": 44.10753039999999,
    "lng": 15.2341653,
    "name_en": "Odjel za anesteziologiju",
    "description_en": null
  },
  {
    "id": 3302,
    "wind2horizon_id": null,
    "lat": 44.1264087,
    "lng": 15.2452948,
    "name_en": "Poliklinika Therapia",
    "description_en": null
  },
  {
    "id": 3303,
    "wind2horizon_id": null,
    "lat": 44.058048,
    "lng": 15.3978,
    "name_en": "Obiteljski Dom Za Starije I Nemocne MARINA",
    "description_en": null
  },
  {
    "id": 3304,
    "wind2horizon_id": null,
    "lat": 44.1071519,
    "lng": 15.2347259,
    "name_en": "Interni Odjel",
    "description_en": null
  },
  {
    "id": 3305,
    "wind2horizon_id": null,
    "lat": 44.1066146,
    "lng": 15.23488,
    "name_en": "Odjel Za Patologiju i Sudsku Medicinu",
    "description_en": null
  },
  {
    "id": 3306,
    "wind2horizon_id": null,
    "lat": 44.1079248,
    "lng": 15.2343502,
    "name_en": "Odjel za ORL-kat",
    "description_en": null
  },
  {
    "id": 3307,
    "wind2horizon_id": null,
    "lat": 44.1689327,
    "lng": 15.1938692,
    "name_en": "Hospital Kozino",
    "description_en": null
  },
  {
    "id": 3308,
    "wind2horizon_id": null,
    "lat": 44.1219773,
    "lng": 15.2377205,
    "name_en": "polyclinic Mester",
    "description_en": null
  },
  {
    "id": 3310,
    "wind2horizon_id": null,
    "lat": 43.9222498,
    "lng": 15.4178065,
    "name_en": "Ambulanta Tkon",
    "description_en": null
  },
  {
    "id": 3311,
    "wind2horizon_id": null,
    "lat": 43.9398863,
    "lng": 15.4468529,
    "name_en": "Medical center Biograd",
    "description_en": null
  },
  {
    "id": 3312,
    "wind2horizon_id": null,
    "lat": 43.7319957,
    "lng": 15.8992438,
    "name_en": "Opća bolnica Šibenik",
    "description_en": null
  },
  {
    "id": 3313,
    "wind2horizon_id": null,
    "lat": 43.6988448,
    "lng": 15.8884584,
    "name_en": "Ambulanta",
    "description_en": null
  },
  {
    "id": 3314,
    "wind2horizon_id": null,
    "lat": 43.7235011,
    "lng": 15.9082982,
    "name_en": "Poliklinika Gemini",
    "description_en": null
  },
  {
    "id": 3315,
    "wind2horizon_id": null,
    "lat": 43.7326014,
    "lng": 15.9019536,
    "name_en": "Patologija Opća bolnica Šibenik",
    "description_en": null
  },
  {
    "id": 3316,
    "wind2horizon_id": null,
    "lat": 43.759384,
    "lng": 15.7775239,
    "name_en": "Poliklinika Vodice",
    "description_en": null
  },
  {
    "id": 3317,
    "wind2horizon_id": null,
    "lat": 43.7327653,
    "lng": 15.900182,
    "name_en": "Odjel neurologije OB Šibenik",
    "description_en": null
  },
  {
    "id": 3318,
    "wind2horizon_id": null,
    "lat": 43.7349516,
    "lng": 15.8951167,
    "name_en": "Kbc split",
    "description_en": null
  },
  {
    "id": 3319,
    "wind2horizon_id": null,
    "lat": 43.5172609,
    "lng": 16.4361791,
    "name_en": "DOM ZDRAVLJA SPLIT",
    "description_en": null
  },
  {
    "id": 3320,
    "wind2horizon_id": null,
    "lat": 43.4858258,
    "lng": 16.2663511,
    "name_en": "Stan idk",
    "description_en": null
  },
  {
    "id": 3321,
    "wind2horizon_id": null,
    "lat": 43.5145879,
    "lng": 16.4373184,
    "name_en": "CENTAR ZA PSIHOSOCIJALNU POMOĆ, HRVATSKIM BRANITELJIMA I STRADALNICIMA IZ DOMOVINSKOG RATA",
    "description_en": null
  },
  {
    "id": 3322,
    "wind2horizon_id": null,
    "lat": 43.5092693,
    "lng": 16.1847399,
    "name_en": "Salonamed zdravstveni centar",
    "description_en": null
  },
  {
    "id": 3323,
    "wind2horizon_id": null,
    "lat": 43.51483229999999,
    "lng": 16.4397893,
    "name_en": "MATIANA JOVANOVIĆ, dr. med. specijalist psihijatar",
    "description_en": null
  },
  {
    "id": 3324,
    "wind2horizon_id": null,
    "lat": 43.5038018,
    "lng": 16.4585404,
    "name_en": "KBC Split",
    "description_en": null
  },
  {
    "id": 3325,
    "wind2horizon_id": null,
    "lat": 43.5057827,
    "lng": 16.4690236,
    "name_en": "KBC Split - Križine",
    "description_en": null
  },
  {
    "id": 3326,
    "wind2horizon_id": null,
    "lat": 43.3821545,
    "lng": 16.5560774,
    "name_en": "Bolnica",
    "description_en": null
  },
  {
    "id": 3327,
    "wind2horizon_id": null,
    "lat": 43.50418459999999,
    "lng": 16.4592237,
    "name_en": "Maternity Split",
    "description_en": null
  },
  {
    "id": 3328,
    "wind2horizon_id": null,
    "lat": 43.54058879999999,
    "lng": 16.4928491,
    "name_en": "Split-Dalmatia County Health Center (Solin Branch)",
    "description_en": null
  },
  {
    "id": 3329,
    "wind2horizon_id": null,
    "lat": 43.5055209,
    "lng": 16.4693655,
    "name_en": "Zavod za fizikalnu medicinu i rehabilitaciju s reumatologijom DNEVNA BOLNICA",
    "description_en": null
  },
  {
    "id": 3330,
    "wind2horizon_id": null,
    "lat": 43.5067572,
    "lng": 16.4738421,
    "name_en": "Polyclinic Affidea Kalajžić",
    "description_en": null
  },
  {
    "id": 3375,
    "wind2horizon_id": null,
    "lat": 42.652058,
    "lng": 18.088769,
    "name_en": "Poliklinika Marin Med Dubrovnik",
    "description_en": null
  },
  {
    "id": 3331,
    "wind2horizon_id": null,
    "lat": 43.5089907,
    "lng": 16.4577815,
    "name_en": "AKROMION - SPECIJALNA BOLNICA ZA ORTOPEDIJU I TRAUMATOLOGIJU LOKOMOTORNOG SUSTAVA",
    "description_en": null
  },
  {
    "id": 3349,
    "wind2horizon_id": null,
    "lat": 43.5070437,
    "lng": 16.4740805,
    "name_en": "IPM",
    "description_en": null
  },
  {
    "id": 3419,
    "wind2horizon_id": null,
    "lat": 44.544321,
    "lng": 14.4611537,
    "name_en": "Marina Lošinj",
    "description_en": null
  },
  {
    "id": 3332,
    "wind2horizon_id": null,
    "lat": 43.50977109999999,
    "lng": 16.4744236,
    "name_en": "Poliklinika Priska Med",
    "description_en": null
  },
  {
    "id": 3333,
    "wind2horizon_id": null,
    "lat": 43.503529,
    "lng": 16.4587097,
    "name_en": "Firule bolnica",
    "description_en": null
  },
  {
    "id": 3334,
    "wind2horizon_id": null,
    "lat": 43.58292700000001,
    "lng": 16.59585,
    "name_en": "Ambulantna Dugopolje",
    "description_en": null
  },
  {
    "id": 3335,
    "wind2horizon_id": null,
    "lat": 43.506509,
    "lng": 16.4680325,
    "name_en": "KBC Split Križine, Zapadni ulaz",
    "description_en": null
  },
  {
    "id": 3336,
    "wind2horizon_id": null,
    "lat": 43.5059286,
    "lng": 16.4627693,
    "name_en": "Poliklinika NOVA",
    "description_en": null
  },
  {
    "id": 3337,
    "wind2horizon_id": null,
    "lat": 43.5041313,
    "lng": 16.4555411,
    "name_en": "Poliklinika Dr. Ljutić",
    "description_en": null
  },
  {
    "id": 3338,
    "wind2horizon_id": null,
    "lat": 43.5352422,
    "lng": 16.4928274,
    "name_en": "SalonaMED zdravstveni centar Solin",
    "description_en": null
  },
  {
    "id": 3339,
    "wind2horizon_id": null,
    "lat": 43.5111162,
    "lng": 16.4497887,
    "name_en": "Public Health Institute of Split",
    "description_en": null
  },
  {
    "id": 3340,
    "wind2horizon_id": null,
    "lat": 43.5037352,
    "lng": 16.4589629,
    "name_en": "ODSJEK ZA CENTRALNO NARUČIVANJE BOLESNIKA",
    "description_en": null
  },
  {
    "id": 3341,
    "wind2horizon_id": null,
    "lat": 43.3822382,
    "lng": 16.5557984,
    "name_en": "Emergency Services",
    "description_en": null
  },
  {
    "id": 3343,
    "wind2horizon_id": null,
    "lat": 43.5183685,
    "lng": 16.4496198,
    "name_en": "SPECIJALISTIČKA ORDINACIJA ZA PSIHIJATRIJU dr. med. VJERA MUNITIĆ",
    "description_en": null
  },
  {
    "id": 3345,
    "wind2horizon_id": null,
    "lat": 43.5049338,
    "lng": 16.4698175,
    "name_en": "Infection Emergency Split",
    "description_en": null
  },
  {
    "id": 3209,
    "wind2horizon_id": null,
    "lat": 45.6486157,
    "lng": 13.7649123,
    "name_en": "TriesteMED Poliambulatorio",
    "description_en": null
  },
  {
    "id": 3346,
    "wind2horizon_id": null,
    "lat": 43.5118634,
    "lng": 16.4556272,
    "name_en": "Dom za starije i nemoćne",
    "description_en": null
  },
  {
    "id": 3177,
    "wind2horizon_id": null,
    "lat": 45.5444345,
    "lng": 13.6877748,
    "name_en": "Urgentni center Izola",
    "description_en": null
  },
  {
    "id": 3178,
    "wind2horizon_id": null,
    "lat": 45.5443417,
    "lng": 13.6865794,
    "name_en": "Izola General Hospital",
    "description_en": null
  },
  {
    "id": 3180,
    "wind2horizon_id": null,
    "lat": 45.6336352,
    "lng": 13.8271129,
    "name_en": "Cattinara Hospital",
    "description_en": null
  },
  {
    "id": 3182,
    "wind2horizon_id": null,
    "lat": 45.5342147,
    "lng": 13.6624676,
    "name_en": "Zdravstveni zavod Celjenje - ambulanta",
    "description_en": null
  },
  {
    "id": 3184,
    "wind2horizon_id": null,
    "lat": 45.5447965,
    "lng": 13.6852696,
    "name_en": "Center za transfuzijsko dejavnost Izola - Centro per l'attività trasfusionale Isola",
    "description_en": null
  },
  {
    "id": 3187,
    "wind2horizon_id": null,
    "lat": 45.4916245,
    "lng": 13.6963158,
    "name_en": "Pr Ivanu",
    "description_en": null
  },
  {
    "id": 3188,
    "wind2horizon_id": null,
    "lat": 45.5486359,
    "lng": 13.7373357,
    "name_en": "Zasebni zdravstveni zavod Bossman Peter",
    "description_en": null
  },
  {
    "id": 3193,
    "wind2horizon_id": null,
    "lat": 45.4158282,
    "lng": 13.6605982,
    "name_en": "Veterinarska ambulanta Buje",
    "description_en": null
  },
  {
    "id": 3198,
    "wind2horizon_id": null,
    "lat": 45.6486422,
    "lng": 13.7816195,
    "name_en": "Distretto 2",
    "description_en": null
  },
  {
    "id": 3347,
    "wind2horizon_id": null,
    "lat": 43.5127448,
    "lng": 16.4737439,
    "name_en": "Invalidski centar Split",
    "description_en": null
  },
  {
    "id": 3348,
    "wind2horizon_id": null,
    "lat": 43.5057941,
    "lng": 16.462914,
    "name_en": "Poliklinika E Visio",
    "description_en": null
  },
  {
    "id": 3350,
    "wind2horizon_id": null,
    "lat": 43.56098919999999,
    "lng": 16.5233228,
    "name_en": "Ambulanta Klis",
    "description_en": null
  },
  {
    "id": 3351,
    "wind2horizon_id": null,
    "lat": 43.5493415,
    "lng": 16.4871754,
    "name_en": "Drniš Poliklinika",
    "description_en": null
  },
  {
    "id": 3352,
    "wind2horizon_id": null,
    "lat": 43.5064918,
    "lng": 16.4682146,
    "name_en": "Zavod za pomorsku medicinu",
    "description_en": null
  },
  {
    "id": 3353,
    "wind2horizon_id": null,
    "lat": 43.50650040000001,
    "lng": 16.4681235,
    "name_en": "Odjel za kliničku citologiju",
    "description_en": null
  },
  {
    "id": 3354,
    "wind2horizon_id": null,
    "lat": 43.50868910000001,
    "lng": 16.4798292,
    "name_en": "Maritime Medicine Split",
    "description_en": null
  },
  {
    "id": 3355,
    "wind2horizon_id": null,
    "lat": 43.5050969,
    "lng": 16.474586,
    "name_en": "Ordinacija Salve",
    "description_en": null
  },
  {
    "id": 3356,
    "wind2horizon_id": null,
    "lat": 43.514056,
    "lng": 16.446066,
    "name_en": "Institut pomorske medicine",
    "description_en": null
  },
  {
    "id": 3357,
    "wind2horizon_id": null,
    "lat": 43.5415815,
    "lng": 16.4760868,
    "name_en": "Medizinisches Versorgungszentrum",
    "description_en": null
  },
  {
    "id": 3358,
    "wind2horizon_id": null,
    "lat": 43.2923501,
    "lng": 17.0221105,
    "name_en": "Health Center Makarska",
    "description_en": null
  },
  {
    "id": 3253,
    "wind2horizon_id": null,
    "lat": 45.331061,
    "lng": 14.433475,
    "name_en": "Poliklinika Roth Rijeka - Ortopedija Kirurgija Radiologija",
    "description_en": null
  },
  {
    "id": 3485,
    "wind2horizon_id": null,
    "lat": 44.5557261,
    "lng": 14.8826743,
    "name_en": "Novalja Harbor",
    "description_en": null
  },
  {
    "id": 3359,
    "wind2horizon_id": null,
    "lat": 43.3993518,
    "lng": 17.0511796,
    "name_en": "Klinički bolnički centar Split- Podružnica Zagvozd",
    "description_en": null
  },
  {
    "id": 3360,
    "wind2horizon_id": null,
    "lat": 43.292374,
    "lng": 17.0224437,
    "name_en": "Emergency Medical Help",
    "description_en": null
  },
  {
    "id": 3361,
    "wind2horizon_id": null,
    "lat": 43.3036584,
    "lng": 17.0080902,
    "name_en": "Biokovka",
    "description_en": null
  },
  {
    "id": 3362,
    "wind2horizon_id": null,
    "lat": 43.292598,
    "lng": 17.0221715,
    "name_en": "Med.biokemijski Laboratorij za vađenje krvi",
    "description_en": null
  },
  {
    "id": 3363,
    "wind2horizon_id": null,
    "lat": 43.2926603,
    "lng": 17.0214798,
    "name_en": "DOM ZDRAVLJA - Posebno dežurstvo i Turistička ambulanta",
    "description_en": null
  },
  {
    "id": 3364,
    "wind2horizon_id": null,
    "lat": 43.2652347,
    "lng": 17.0584877,
    "name_en": "Hemodijalizni centar",
    "description_en": null
  },
  {
    "id": 3365,
    "wind2horizon_id": null,
    "lat": 43.3227181,
    "lng": 16.984716,
    "name_en": "Były szpital",
    "description_en": null
  },
  {
    "id": 3366,
    "wind2horizon_id": null,
    "lat": 43.4396751,
    "lng": 16.6982661,
    "name_en": "DOM ZDRAVLJA SPLITSKO-DALMATINSKE ŽUPANIJE, ISPOSTAVA OMIŠ",
    "description_en": null
  },
  {
    "id": 3367,
    "wind2horizon_id": null,
    "lat": 43.4439167,
    "lng": 16.6426382,
    "name_en": "AMBULANTA Dugi Rat dr. Kalebić Marija",
    "description_en": null
  },
  {
    "id": 3369,
    "wind2horizon_id": null,
    "lat": 43.1730245,
    "lng": 16.4364187,
    "name_en": "Hospital- Emergency",
    "description_en": null
  },
  {
    "id": 3370,
    "wind2horizon_id": null,
    "lat": 42.9646147,
    "lng": 17.346354,
    "name_en": "Ambulanta Kuna",
    "description_en": null
  },
  {
    "id": 3371,
    "wind2horizon_id": null,
    "lat": 42.6477382,
    "lng": 18.0758588,
    "name_en": "General Hospital Dubrovnik",
    "description_en": null
  },
  {
    "id": 3372,
    "wind2horizon_id": null,
    "lat": 42.6482531,
    "lng": 18.0761361,
    "name_en": "Hitna pomoć - A&E/ER",
    "description_en": null
  },