[
  {
    "id": 86,
    "wind2horizon_id": null,
    "lat": 47.3180917,
    "lng": 13.1991778,
    "name_en": "Gut Berg Naturhotel",
    "description_en": "Airy rooms in a relaxed venue offering direct ski access, dining, a spa & an indoor pool."
  },
  {
    "id": 87,
    "wind2horizon_id": null,
    "lat": 47.3475428,
    "lng": 13.20184,
    "name_en": "sehen!wutscher",
    "description_en": null
  },
  {
    "id": 427,
    "wind2horizon_id": null,
    "lat": 45.2025388,
    "lng": 13.5883683,
    "name_en": "Villa Romana beach lounge & restaurant",
    "description_en": null
  },
  {
    "id": 93,
    "wind2horizon_id": null,
    "lat": 44.87322990000001,
    "lng": 13.8502458,
    "name_en": "Pula Arena",
    "description_en": "Huge Roman amphitheater with an underground exhibition about ancient olive oil & wine production."
  },
  {
    "id": 85,
    "wind2horizon_id": null,
    "lat": 47.4255636,
    "lng": 12.4200354,
    "name_en": "Gasthaus Eichenheim",
    "description_en": null
  },
  {
    "id": 97,
    "wind2horizon_id": null,
    "lat": 47.8997807,
    "lng": 13.7583526,
    "name_en": "Seefunkschule Adlmanninger",
    "description_en": null
  },
  {
    "id": 98,
    "wind2horizon_id": null,
    "lat": 47.34702619999999,
    "lng": 13.2021919,
    "name_en": "Johannes Stadtapotheke",
    "description_en": null
  },
  {
    "id": 88,
    "wind2horizon_id": null,
    "lat": 48.20752099999999,
    "lng": 16.378672,
    "name_en": "Plachutta Wollzeile",
    "description_en": "Smart venue for Tafelspitz boiled beef & other classics of Viennese cuisine, with outdoor seating."
  },
  {
    "id": 89,
    "wind2horizon_id": null,
    "lat": 48.2040009,
    "lng": 16.3697963,
    "name_en": "Hotel Sacher Vienna",
    "description_en": "Elegant quarters in a ornate hotel with 2 refined restaurants, a terrace bar & a full-service spa."
  },
  {
    "id": 90,
    "wind2horizon_id": null,
    "lat": 48.1858124,
    "lng": 16.3127641,
    "name_en": "Schönbrunn Palace",
    "description_en": "18th-century summer palace with tours of lavish rococo ceremonial rooms, plus gardens with a maze."
  },
  {
    "id": 91,
    "wind2horizon_id": null,
    "lat": 47.35044120000001,
    "lng": 13.1940298,
    "name_en": "JET Tankstelle",
    "description_en": null
  },
  {
    "id": 92,
    "wind2horizon_id": null,
    "lat": 47.3134265,
    "lng": 13.1896781,
    "name_en": "Liechtensteinklamm",
    "description_en": "Deep, narrow gorge with footpaths, bridges, river & waterfall, only open in the summer months."
  },
  {
    "id": 94,
    "wind2horizon_id": null,
    "lat": 45.2038392,
    "lng": 13.5947036,
    "name_en": "Skilift Porec",
    "description_en": null
  },
  {
    "id": 96,
    "wind2horizon_id": null,
    "lat": 47.8021621,
    "lng": 13.0432009,
    "name_en": "Hotel Sacher Salzburg",
    "description_en": "Lavish hotel offering 3 refined restaurants, a cafe & a chocolaterie, as well as river views."
  },
  {
    "id": 95,
    "wind2horizon_id": null,
    "lat": 47.3089895,
    "lng": 13.0902492,
    "name_en": "Golfclub Goldegg",
    "description_en": null
  },
  {
    "id": 99,
    "wind2horizon_id": null,
    "lat": 47.321454,
    "lng": 13.195048,
    "name_en": "Snow Space Salzburg - St. Johann im Pongau",
    "description_en": "Huge resort with 3 ski areas, mountain huts & modern cable cars, plus hiking trails in summer."
  },
  {
    "id": 100,
    "wind2horizon_id": null,
    "lat": 47.4430868,
    "lng": 12.3892092,
    "name_en": "Bergbahn AG Kitzbühel - KitzSki",
    "description_en": "Popular ski resort featuring a wide variety of challenging skiing & snowboarding slopes."
  }
]